[
  {
    "name": "Budapest, including the Banks of the Danube, the Buda Castle Quarter and Andrássy Avenue",
    "category": "Cultural",
    "latitude": 47.48242,
    "longitude": 19.07067,
    "distance_from_budapest_km": 2.86,
    "states": "Hungary",
    "date_inscribed": "1987"
  },
  {
    "name": "Old Village of Hollókő and its Surroundings",
    "category": "Cultural",
    "latitude": 47.99444,
    "longitude": 19.52917,
    "distance_from_budapest_km": 66.22,
    "states": "Hungary",
    "date_inscribed": "1987"
  },
  {
    "name": "Millenary Benedictine Abbey of Pannonhalma and its Natural Environment",
    "category": "Cultural",
    "latitude": 47.55889,
    "longitude": 17.78444,
    "distance_from_budapest_km": 94.53,
    "states": "Hungary",
    "date_inscribed": "1996"
  },
  {
    "name": "Historic Town of Banská Štiavnica and the Technical Monuments in its Vicinity",
    "category": "Cultural",
    "latitude": 48.46111,
    "longitude": 18.9,
    "distance_from_budapest_km": 107.61,
    "states": "Slovakia",
    "date_inscribed": "1993"
  },
  {
    "name": "Caves of Aggtelek Karst and Slovak Karst",
    "category": "Natural",
    "latitude": 48.47573,
    "longitude": 20.48687,
    "distance_from_budapest_km": 153.01,
    "states": "Hungary,Slovakia",
    "date_inscribed": "1995"
  },
  {
    "name": "Hortobágy National Park - the <i>Puszta</i>",
    "category": "Cultural",
    "latitude": 47.59458,
    "longitude": 21.15678,
    "distance_from_budapest_km": 159.22,
    "states": "Hungary",
    "date_inscribed": "1999"
  },
  {
    "name": "Early Christian Necropolis of Pécs (Sopianae)",
    "category": "Cultural",
    "latitude": 46.07444,
    "longitude": 18.22778,
    "distance_from_budapest_km": 169.94,
    "states": "Hungary",
    "date_inscribed": "2000"
  },
  {
    "name": "Vlkolínec",
    "category": "Cultural",
    "latitude": 49.0391666667,
    "longitude": 19.2783333333,
    "distance_from_budapest_km": 172.28,
    "states": "Slovakia",
    "date_inscribed": "1993"
  },
  {
    "name": "Fertö / Neusiedlersee Cultural Landscape",
    "category": "Cultural",
    "latitude": 47.71927778,
    "longitude": 16.72272222,
    "distance_from_budapest_km": 175.46,
    "states": "Austria,Hungary",
    "date_inscribed": "2001"
  },
  {
    "name": "Frontiers of the Roman Empire – The Danube Limes (Western Segment)",
    "category": "Cultural",
    "latitude": 48.1151944444,
    "longitude": 16.8613888889,
    "distance_from_budapest_km": 176.6,
    "states": "Austria,Germany,Slovakia",
    "date_inscribed": "2021"
  },
  {
    "name": "Tokaj Wine Region Historic Cultural Landscape",
    "category": "Cultural",
    "latitude": 48.15,
    "longitude": 21.35,
    "distance_from_budapest_km": 187.06,
    "states": "Hungary",
    "date_inscribed": "2002"
  },
  {
    "name": "Wooden Churches of the Slovak part of the Carpathian Mountain Area",
    "category": "Cultural",
    "latitude": 49.3361111111,
    "longitude": 19.5583333333,
    "distance_from_budapest_km": 207.94,
    "states": "Slovakia",
    "date_inscribed": "2008"
  },
  {
    "name": "Levoča, Spišský Hrad and the Associated Cultural Monuments",
    "category": "Cultural",
    "latitude": 48.9994444444,
    "longitude": 20.7675,
    "distance_from_budapest_km": 210.31,
    "states": "Slovakia",
    "date_inscribed": "1993"
  },
  {
    "name": "Historic Centre of Vienna",
    "category": "Cultural",
    "latitude": 48.2094,
    "longitude": 16.3699,
    "distance_from_budapest_km": 214.36,
    "states": "Austria",
    "date_inscribed": "2001"
  },
  {
    "name": "Palace and Gardens of Schönbrunn",
    "category": "Cultural",
    "latitude": 48.18666667,
    "longitude": 16.31333333,
    "distance_from_budapest_km": 217.43,
    "states": "Austria",
    "date_inscribed": "1996"
  },
  {
    "name": "Lednice-Valtice Cultural Landscape",
    "category": "Cultural",
    "latitude": 48.77583,
    "longitude": 16.775,
    "distance_from_budapest_km": 220.09,
    "states": "Czechia",
    "date_inscribed": "1996"
  },
  {
    "name": "Gardens and Castle at Kroměříž",
    "category": "Cultural",
    "latitude": 49.3,
    "longitude": 17.37722222,
    "distance_from_budapest_km": 234.99,
    "states": "Czechia",
    "date_inscribed": "1998"
  },
  {
    "name": "Semmering Railway",
    "category": "Cultural",
    "latitude": 47.64877778,
    "longitude": 15.82797222,
    "distance_from_budapest_km": 241.54,
    "states": "Austria",
    "date_inscribed": "1998"
  },
  {
    "name": "Bardejov Town Conservation Reserve",
    "category": "Cultural",
    "latitude": 49.2927777778,
    "longitude": 21.2755555556,
    "distance_from_budapest_km": 258.96,
    "states": "Slovakia",
    "date_inscribed": "2000"
  },
  {
    "name": "Tugendhat Villa in Brno",
    "category": "Cultural",
    "latitude": 49.2071833333,
    "longitude": 16.6160555556,
    "distance_from_budapest_km": 261.15,
    "states": "Czechia",
    "date_inscribed": "2001"
  },
  {
    "name": "Kalwaria Zebrzydowska: the Mannerist Architectural and Park Landscape Complex and Pilgrimage Park",
    "category": "Cultural",
    "latitude": 49.86668,
    "longitude": 19.676361,
    "distance_from_budapest_km": 267.5,
    "states": "Poland",
    "date_inscribed": "1999"
  },
  {
    "name": "Holy Trinity Column in Olomouc",
    "category": "Cultural",
    "latitude": 49.5939361111,
    "longitude": 17.2504583333,
    "distance_from_budapest_km": 267.71,
    "states": "Czechia",
    "date_inscribed": "2000"
  },
  {
    "name": "Wooden <em>Tserkvas</em> of the Carpathian Region in Poland and Ukraine",
    "category": "Cultural",
    "latitude": 49.5338888889,
    "longitude": 21.0322222222,
    "distance_from_budapest_km": 269.76,
    "states": "Poland,Ukraine",
    "date_inscribed": "2013"
  },
  {
    "name": "City of Graz – Historic Centre and Schloss Eggenberg",
    "category": "Cultural",
    "latitude": 47.0730555556,
    "longitude": 15.4386111111,
    "distance_from_budapest_km": 275.71,
    "states": "Austria",
    "date_inscribed": "1999"
  },
  {
    "name": "Ancient and Primeval Beech Forests of the Carpathians and Other Regions of Europe",
    "category": "Natural",
    "latitude": 48.9,
    "longitude": 22.1833333333,
    "distance_from_budapest_km": 280.28,
    "states": "Albania,Austria,Belgium,Bosnia and Herzegovina,Bulgaria,Croatia,Czechia,France,Germany,Italy,Poland,Romania,Slovakia,Slovenia,Spain,Switzerland,North Macedonia,Ukraine",
    "date_inscribed": "2007"
  },
  {
    "name": "Auschwitz Birkenau <br /><small>German Nazi Concentration and Extermination Camp (1940-1945)</small>",
    "category": "Cultural",
    "latitude": 50.0388888889,
    "longitude": 19.175,
    "distance_from_budapest_km": 282.72,
    "states": "Poland",
    "date_inscribed": "1979"
  },
  {
    "name": "Wachau Cultural Landscape",
    "category": "Cultural",
    "latitude": 48.36444444,
    "longitude": 15.43416667,
    "distance_from_budapest_km": 285.38,
    "states": "Austria",
    "date_inscribed": "2000"
  },
  {
    "name": "Wieliczka and Bochnia Royal Salt Mines",
    "category": "Cultural",
    "latitude": 49.9791666667,
    "longitude": 20.0638888889,
    "distance_from_budapest_km": 285.93,
    "states": "Poland",
    "date_inscribed": "1978"
  },
  {
    "name": "Historic Centre of Kraków",
    "category": "Cultural",
    "latitude": 50.0613888889,
    "longitude": 19.9372222222,
    "distance_from_budapest_km": 292.52,
    "states": "Poland",
    "date_inscribed": "1978"
  },
  {
    "name": "Wooden Churches of Southern Małopolska",
    "category": "Cultural",
    "latitude": 49.75,
    "longitude": 21.23333333,
    "distance_from_budapest_km": 297.79,
    "states": "Poland",
    "date_inscribed": "2003"
  },
  {
    "name": "Jewish Quarter and St Procopius' Basilica in Třebíč",
    "category": "Cultural",
    "latitude": 49.21722222,
    "longitude": 15.87888889,
    "distance_from_budapest_km": 301.8,
    "states": "Czechia",
    "date_inscribed": "2003"
  },
  {
    "name": "Frontiers of the Roman Empire – Dacia",
    "category": "Cultural",
    "latitude": 47.1807888889,
    "longitude": 23.1594111111,
    "distance_from_budapest_km": 312.35,
    "states": "Romania",
    "date_inscribed": "2024"
  },
  {
    "name": "Historic Centre of Telč",
    "category": "Cultural",
    "latitude": 49.1841388889,
    "longitude": 15.4539722222,
    "distance_from_budapest_km": 324.62,
    "states": "Czechia",
    "date_inscribed": "1992"
  },
  {
    "name": "Pilgrimage Church of St John of Nepomuk at Zelená Hora",
    "category": "Cultural",
    "latitude": 49.5802,
    "longitude": 15.9420583333,
    "distance_from_budapest_km": 324.97,
    "states": "Czechia",
    "date_inscribed": "1994"
  },
  {
    "name": "Tarnowskie Góry Lead-Silver-Zinc Mine and its Underground Water Management System",
    "category": "Cultural",
    "latitude": 50.4426972222,
    "longitude": 18.8512277778,
    "distance_from_budapest_km": 327.74,
    "states": "Poland",
    "date_inscribed": "2017"
  },
  {
    "name": "Litomyšl Castle",
    "category": "Cultural",
    "latitude": 49.87361,
    "longitude": 16.31444,
    "distance_from_budapest_km": 331.35,
    "states": "Czechia",
    "date_inscribed": "1999"
  },
  {
    "name": "Roșia Montană Mining Landscape",
    "category": "Cultural",
    "latitude": 46.3061111111,
    "longitude": 23.1305555556,
    "distance_from_budapest_km": 337.78,
    "states": "Romania",
    "date_inscribed": "2021"
  },
  {
    "name": "Wooden Churches of Maramureş",
    "category": "Cultural",
    "latitude": 47.82083333,
    "longitude": 24.05583333,
    "distance_from_budapest_km": 377.29,
    "states": "Romania",
    "date_inscribed": "1999"
  },
  {
    "name": "Historic Centre of Český Krumlov",
    "category": "Cultural",
    "latitude": 48.8106944444,
    "longitude": 14.3150277778,
    "distance_from_budapest_km": 379.62,
    "states": "Czechia",
    "date_inscribed": "1992"
  },
  {
    "name": "The works of Jože Plečnik in Ljubljana – Human Centred Urban Design",
    "category": "Cultural",
    "latitude": 46.0433333333,
    "longitude": 14.5022222222,
    "distance_from_budapest_km": 381.5,
    "states": "Slovenia",
    "date_inscribed": "2021"
  },
  {
    "name": "Landscape for Breeding and Training of Ceremonial Carriage Horses at Kladruby nad Labem",
    "category": "Cultural",
    "latitude": 50.05665,
    "longitude": 15.4842583333,
    "distance_from_budapest_km": 385.72,
    "states": "Czechia",
    "date_inscribed": "2019"
  },
  {
    "name": "Dacian Fortresses of the Orastie Mountains",
    "category": "Cultural",
    "latitude": 45.62305556,
    "longitude": 23.31194444,
    "distance_from_budapest_km": 387.38,
    "states": "Romania",
    "date_inscribed": "1999"
  },
  {
    "name": "Kutná Hora: Historical Town Centre with the Church of St Barbara and the Cathedral of Our Lady at Sedlec",
    "category": "Cultural",
    "latitude": 49.95,
    "longitude": 15.2666666667,
    "distance_from_budapest_km": 388.45,
    "states": "Czechia",
    "date_inscribed": "1995"
  },
  {
    "name": "Holašovice Historic Village",
    "category": "Cultural",
    "latitude": 48.9696388889,
    "longitude": 14.2726111111,
    "distance_from_budapest_km": 389.1,
    "states": "Czechia",
    "date_inscribed": "1998"
  },
  {
    "name": "Plitvice Lakes National Park",
    "category": "Natural",
    "latitude": 44.87778,
    "longitude": 15.61444,
    "distance_from_budapest_km": 392.89,
    "states": "Croatia",
    "date_inscribed": "1979"
  },
  {
    "name": "Hallstatt-Dachstein / Salzkammergut Cultural Landscape",
    "category": "Cultural",
    "latitude": 47.55944444,
    "longitude": 13.64638889,
    "distance_from_budapest_km": 404.95,
    "states": "Austria",
    "date_inscribed": "1997"
  },
  {
    "name": "Mehmed Paša Sokolović Bridge in Višegrad",
    "category": "Cultural",
    "latitude": 43.7814444444,
    "longitude": 19.288025,
    "distance_from_budapest_km": 413.7,
    "states": "Bosnia and Herzegovina",
    "date_inscribed": "2007"
  },
  {
    "name": "Krzemionki Prehistoric Striped Flint Mining Region",
    "category": "Cultural",
    "latitude": 50.9679722222,
    "longitude": 21.5023055556,
    "distance_from_budapest_km": 425.19,
    "states": "Poland",
    "date_inscribed": "2019"
  },
  {
    "name": "Brâncuși Monumental Ensemble of Târgu Jiu",
    "category": "Cultural",
    "latitude": 45.0382777778,
    "longitude": 23.2787777778,
    "distance_from_budapest_km": 425.27,
    "states": "Romania",
    "date_inscribed": "2024"
  },
  {
    "name": "Centennial Hall in Wrocław",
    "category": "Cultural",
    "latitude": 51.1069472222,
    "longitude": 17.0770138888,
    "distance_from_budapest_km": 425.76,
    "states": "Poland",
    "date_inscribed": "2006"
  },
  {
    "name": "Škocjan Caves",
    "category": "Natural",
    "latitude": 45.66667,
    "longitude": 14.0,
    "distance_from_budapest_km": 435.59,
    "states": "Slovenia",
    "date_inscribed": "1986"
  },
  {
    "name": "Historic Centre of Prague",
    "category": "Cultural",
    "latitude": 50.08972,
    "longitude": 14.41944,
    "distance_from_budapest_km": 444.4,
    "states": "Czechia",
    "date_inscribed": "1992"
  },
  {
    "name": "Churches of Peace in Jawor and Świdnica",
    "category": "Cultural",
    "latitude": 51.05427778,
    "longitude": 16.19594444,
    "distance_from_budapest_km": 445.96,
    "states": "Poland",
    "date_inscribed": "2001"
  },
  {
    "name": "L'viv – the Ensemble of the Historic Centre",
    "category": "Cultural",
    "latitude": 49.84163,
    "longitude": 24.03198,
    "distance_from_budapest_km": 449.61,
    "states": "Ukraine",
    "date_inscribed": "1998"
  },
  {
    "name": "Historic Centre of the City of Salzburg",
    "category": "Cultural",
    "latitude": 47.80055556,
    "longitude": 13.04333333,
    "distance_from_budapest_km": 450.36,
    "states": "Austria",
    "date_inscribed": "1996"
  },
  {
    "name": "Longobards in Italy. Places of the Power (568-774 A.D.)",
    "category": "Cultural",
    "latitude": 46.0941666667,
    "longitude": 13.4330555556,
    "distance_from_budapest_km": 454.35,
    "states": "Italy",
    "date_inscribed": "2011"
  },
  {
    "name": "Historic Centre of Sighişoara",
    "category": "Cultural",
    "latitude": 46.21777778,
    "longitude": 24.79222222,
    "distance_from_budapest_km": 459.81,
    "states": "Romania",
    "date_inscribed": "1999"
  },
  {
    "name": "Monastery of Horezu",
    "category": "Cultural",
    "latitude": 45.1697222222,
    "longitude": 24.0072222222,
    "distance_from_budapest_km": 460.77,
    "states": "Romania",
    "date_inscribed": "1993"
  },
  {
    "name": "Studenica Monastery",
    "category": "Cultural",
    "latitude": 43.4865277778,
    "longitude": 20.5316666667,
    "distance_from_budapest_km": 460.92,
    "states": "Serbia",
    "date_inscribed": "1986"
  },
  {
    "name": "Villages with Fortified Churches in Transylvania",
    "category": "Cultural",
    "latitude": 46.13583333,
    "longitude": 24.77305556,
    "distance_from_budapest_km": 461.65,
    "states": "Romania",
    "date_inscribed": "1993"
  },
  {
    "name": "Gamzigrad-Romuliana, Palace of Galerius",
    "category": "Cultural",
    "latitude": 43.8993055556,
    "longitude": 22.1861111111,
    "distance_from_budapest_km": 468.74,
    "states": "Serbia",
    "date_inscribed": "2007"
  },
  {
    "name": "Old City of Zamość",
    "category": "Cultural",
    "latitude": 50.7169444444,
    "longitude": 23.2527777778,
    "distance_from_budapest_km": 471.18,
    "states": "Poland",
    "date_inscribed": "1992"
  },
  {
    "name": "Old Bridge Area of the Old City of Mostar",
    "category": "Cultural",
    "latitude": 43.3373055556,
    "longitude": 17.815,
    "distance_from_budapest_km": 472.4,
    "states": "Bosnia and Herzegovina",
    "date_inscribed": "2005"
  },
  {
    "name": "Archaeological Area and the Patriarchal Basilica of Aquileia",
    "category": "Cultural",
    "latitude": 45.76833333,
    "longitude": 13.3675,
    "distance_from_budapest_km": 473.76,
    "states": "Italy",
    "date_inscribed": "1998"
  },
  {
    "name": "The Cathedral of St James in Šibenik",
    "category": "Cultural",
    "latitude": 43.73629,
    "longitude": 15.89038,
    "distance_from_budapest_km": 484.63,
    "states": "Croatia",
    "date_inscribed": "2000"
  },
  {
    "name": "Durmitor National Park",
    "category": "Natural",
    "latitude": 43.133,
    "longitude": 19.0166,
    "distance_from_budapest_km": 485.36,
    "states": "Montenegro",
    "date_inscribed": "1980"
  },
  {
    "name": "Historical Complex of Split with the Palace of Diocletian",
    "category": "Cultural",
    "latitude": 43.5088888889,
    "longitude": 16.4391666667,
    "distance_from_budapest_km": 487.61,
    "states": "Croatia",
    "date_inscribed": "1979"
  },
  {
    "name": "Episcopal Complex of the Euphrasian Basilica in the Historic Centre of Poreč",
    "category": "Cultural",
    "latitude": 45.2285833333,
    "longitude": 13.5933333333,
    "distance_from_budapest_km": 488.05,
    "states": "Croatia",
    "date_inscribed": "1997"
  },
  {
    "name": "Historic City of Trogir",
    "category": "Cultural",
    "latitude": 43.5170833333,
    "longitude": 16.2513611111,
    "distance_from_budapest_km": 493.04,
    "states": "Croatia",
    "date_inscribed": "1997"
  },
  {
    "name": "Stećci Medieval Tombstone Graveyards",
    "category": "Cultural",
    "latitude": 43.0922138889,
    "longitude": 17.9240527778,
    "distance_from_budapest_km": 497.59,
    "states": "Bosnia and Herzegovina,Croatia,Serbia,Montenegro",
    "date_inscribed": "2016"
  },
  {
    "name": "Stari Ras and Sopoćani",
    "category": "Cultural",
    "latitude": 43.11889,
    "longitude": 20.42278,
    "distance_from_budapest_km": 498.76,
    "states": "Serbia",
    "date_inscribed": "1979"
  },
  {
    "name": "Churches of Moldavia",
    "category": "Cultural",
    "latitude": 47.7783333333,
    "longitude": 25.7127777778,
    "distance_from_budapest_km": 500.75,
    "states": "Romania",
    "date_inscribed": "1993"
  },
  {
    "name": "Žatec and the Landscape of Saaz Hops",
    "category": "Cultural",
    "latitude": 50.3202777778,
    "longitude": 13.62,
    "distance_from_budapest_km": 505.16,
    "states": "Czechia",
    "date_inscribed": "2023"
  },
  {
    "name": "Stari Grad Plain",
    "category": "Cultural",
    "latitude": 43.1816666667,
    "longitude": 16.6386111111,
    "distance_from_budapest_km": 515.28,
    "states": "Croatia",
    "date_inscribed": "2008"
  },
  {
    "name": "Residence of Bukovinian and Dalmatian Metropolitans",
    "category": "Cultural",
    "latitude": 48.2966666667,
    "longitude": 25.9247222222,
    "distance_from_budapest_km": 520.7,
    "states": "Ukraine",
    "date_inscribed": "2011"
  },
  {
    "name": "Vjetrenica Cave, Ravno",
    "category": "Natural",
    "latitude": 42.845,
    "longitude": 17.9888888889,
    "distance_from_budapest_km": 523.89,
    "states": "Bosnia and Herzegovina",
    "date_inscribed": "2024"
  },
  {
    "name": "The Dolomites",
    "category": "Natural",
    "latitude": 46.6130555556,
    "longitude": 12.1630555556,
    "distance_from_budapest_km": 530.01,
    "states": "Italy",
    "date_inscribed": "2009"
  },
  {
    "name": "Old town of Regensburg with Stadtamhof",
    "category": "Cultural",
    "latitude": 49.02055556,
    "longitude": 12.09916667,
    "distance_from_budapest_km": 540.78,
    "states": "Germany",
    "date_inscribed": "2006"
  },
  {
    "name": "Old City of Dubrovnik",
    "category": "Cultural",
    "latitude": 42.6414211111,
    "longitude": 18.1088611111,
    "distance_from_budapest_km": 544.93,
    "states": "Croatia",
    "date_inscribed": "1979"
  },
  {
    "name": "Medieval Monuments in Kosovo",
    "category": "Cultural",
    "latitude": 42.6611111111,
    "longitude": 20.2655555555,
    "distance_from_budapest_km": 546.34,
    "states": "Serbia",
    "date_inscribed": "2004"
  },
  {
    "name": "Le Colline del Prosecco di Conegliano e Valdobbiadene",
    "category": "Cultural",
    "latitude": 45.9530277778,
    "longitude": 12.2261111111,
    "distance_from_budapest_km": 546.84,
    "states": "Italy",
    "date_inscribed": "2019"
  },
  {
    "name": "Historic Centre of Warsaw",
    "category": "Cultural",
    "latitude": 52.25,
    "longitude": 21.013,
    "distance_from_budapest_km": 546.94,
    "states": "Poland",
    "date_inscribed": "1980"
  },
  {
    "name": "Muskauer Park / Park Mużakowski",
    "category": "Cultural",
    "latitude": 51.547653,
    "longitude": 14.729389,
    "distance_from_budapest_km": 547.15,
    "states": "Germany,Poland",
    "date_inscribed": "2004"
  },
  {
    "name": "Erzgebirge/Krušnohoří Mining Region",
    "category": "Cultural",
    "latitude": 50.4065277778,
    "longitude": 12.8373444444,
    "distance_from_budapest_km": 556.26,
    "states": "Czechia,Germany",
    "date_inscribed": "2019"
  },
  {
    "name": "Natural and Culturo-Historical Region of Kotor",
    "category": "Cultural",
    "latitude": 42.48333,
    "longitude": 18.7,
    "distance_from_budapest_km": 558.23,
    "states": "Montenegro",
    "date_inscribed": "1979"
  },
  {
    "name": "Venice and its Lagoon",
    "category": "Cultural",
    "latitude": 45.43430556,
    "longitude": 12.33894444,
    "distance_from_budapest_km": 561.95,
    "states": "Italy",
    "date_inscribed": "1987"
  },
  {
    "name": "Padua’s fourteenth-century fresco cycles",
    "category": "Cultural",
    "latitude": 45.4118888889,
    "longitude": 11.8796111111,
    "distance_from_budapest_km": 595.27,
    "states": "Italy",
    "date_inscribed": "2021"
  },
  {
    "name": "Botanical Garden (Orto Botanico), Padua",
    "category": "Cultural",
    "latitude": 45.39911111,
    "longitude": 11.88066667,
    "distance_from_budapest_km": 595.81,
    "states": "Italy",
    "date_inscribed": "1997"
  },
  {
    "name": "Pilgrimage Church of Wies",
    "category": "Cultural",
    "latitude": 47.68127778,
    "longitude": 10.90013889,
    "distance_from_budapest_km": 610.51,
    "states": "Germany",
    "date_inscribed": "1983"
  },
  {
    "name": "Margravial Opera House Bayreuth",
    "category": "Cultural",
    "latitude": 49.9443931107,
    "longitude": 11.5784979437,
    "distance_from_budapest_km": 610.87,
    "states": "Germany",
    "date_inscribed": "2012"
  },
  {
    "name": "City of Vicenza and the Palladian Villas of the Veneto",
    "category": "Cultural",
    "latitude": 45.54916667,
    "longitude": 11.54944444,
    "distance_from_budapest_km": 612.39,
    "states": "Italy",
    "date_inscribed": "1994"
  },
  {
    "name": "Water Management System of Augsburg",
    "category": "Cultural",
    "latitude": 48.3654722222,
    "longitude": 10.902,
    "distance_from_budapest_km": 613.64,
    "states": "Germany",
    "date_inscribed": "2019"
  },
  {
    "name": "Medieval Town of Toruń",
    "category": "Cultural",
    "latitude": 53.0105555556,
    "longitude": 18.6041666667,
    "distance_from_budapest_km": 613.76,
    "states": "Poland",
    "date_inscribed": "1997"
  },
  {
    "name": "Early Christian Monuments of Ravenna",
    "category": "Cultural",
    "latitude": 44.42041667,
    "longitude": 12.19625,
    "distance_from_budapest_km": 629.7,
    "states": "Italy",
    "date_inscribed": "1996"
  },
  {
    "name": "Boyana Church",
    "category": "Cultural",
    "latitude": 42.6446319444,
    "longitude": 23.2661827778,
    "distance_from_budapest_km": 633.3,
    "states": "Bulgaria",
    "date_inscribed": "1979"
  },
  {
    "name": "Ferrara, City of the Renaissance, and its Po Delta",
    "category": "Cultural",
    "latitude": 44.83777778,
    "longitude": 11.61944444,
    "distance_from_budapest_km": 643.09,
    "states": "Italy",
    "date_inscribed": "1995"
  },
  {
    "name": "San Marino Historic Centre and Mount Titano",
    "category": "Cultural",
    "latitude": 43.9327777778,
    "longitude": 12.4519444444,
    "distance_from_budapest_km": 646.75,
    "states": "San Marino",
    "date_inscribed": "2008"
  },
  {
    "name": "Historic Centre of Urbino",
    "category": "Cultural",
    "latitude": 43.725,
    "longitude": 12.63333,
    "distance_from_budapest_km": 651.04,
    "states": "Italy",
    "date_inscribed": "1998"
  },
  {
    "name": "Town of Bamberg",
    "category": "Cultural",
    "latitude": 49.89166667,
    "longitude": 10.88888889,
    "distance_from_budapest_km": 654.36,
    "states": "Germany",
    "date_inscribed": "1993"
  },
  {
    "name": "City of Verona",
    "category": "Cultural",
    "latitude": 45.43861111,
    "longitude": 10.99388889,
    "distance_from_budapest_km": 657.02,
    "states": "Italy",
    "date_inscribed": "2000"
  },
  {
    "name": "Benedictine Convent of St John at Müstair",
    "category": "Cultural",
    "latitude": 46.62945,
    "longitude": 10.44765,
    "distance_from_budapest_km": 657.61,
    "states": "Switzerland",
    "date_inscribed": "1983"
  },
  {
    "name": "Naumburg Cathedral",
    "category": "Cultural",
    "latitude": 51.1548055556,
    "longitude": 11.804,
    "distance_from_budapest_km": 663.08,
    "states": "Germany",
    "date_inscribed": "2018"
  },
  {
    "name": "Luther Memorials in Eisleben and Wittenberg",
    "category": "Cultural",
    "latitude": 51.86472,
    "longitude": 12.65278,
    "distance_from_budapest_km": 668.07,
    "states": "Germany",
    "date_inscribed": "1996"
  },
  {
    "name": "Garden Kingdom of Dessau-Wörlitz",
    "category": "Cultural",
    "latitude": 51.8425,
    "longitude": 12.42083,
    "distance_from_budapest_km": 677.93,
    "states": "Germany",
    "date_inscribed": "2000"
  },
  {
    "name": "Białowieża Forest",
    "category": "Natural",
    "latitude": 52.7275,
    "longitude": 23.9811111111,
    "distance_from_budapest_km": 679.54,
    "states": "Belarus,Poland",
    "date_inscribed": "1979"
  },
  {
    "name": "Bauhaus and its Sites in Weimar, Dessau and Bernau",
    "category": "Cultural",
    "latitude": 50.9747777778,
    "longitude": 11.3295,
    "distance_from_budapest_km": 679.79,
    "states": "Germany",
    "date_inscribed": "1996"
  },
  {
    "name": "Berlin Modernism Housing Estates",
    "category": "Cultural",
    "latitude": 52.4483333333,
    "longitude": 13.45,
    "distance_from_budapest_km": 679.88,
    "states": "Germany",
    "date_inscribed": "2008"
  },
  {
    "name": "Classical Weimar",
    "category": "Cultural",
    "latitude": 50.9775,
    "longitude": 11.32861,
    "distance_from_budapest_km": 680.0,
    "states": "Germany",
    "date_inscribed": "1998"
  },
  {
    "name": "The Porticoes of Bologna",
    "category": "Cultural",
    "latitude": 44.4913888889,
    "longitude": 11.3327777778,
    "distance_from_budapest_km": 682.38,
    "states": "Italy",
    "date_inscribed": "2021"
  },
  {
    "name": "Mantua and Sabbioneta",
    "category": "Cultural",
    "latitude": 45.1594444444,
    "longitude": 10.7944444444,
    "distance_from_budapest_km": 684.01,
    "states": "Italy",
    "date_inscribed": "2008"
  },
  {
    "name": "Rock-Hewn Churches of Ivanovo",
    "category": "Cultural",
    "latitude": 43.694858,
    "longitude": 25.987893,
    "distance_from_budapest_km": 685.86,
    "states": "Bulgaria",
    "date_inscribed": "1979"
  },
  {
    "name": "Rila Monastery",
    "category": "Cultural",
    "latitude": 42.133298,
    "longitude": 23.340187,
    "distance_from_budapest_km": 685.94,
    "states": "Bulgaria",
    "date_inscribed": "1983"
  },
  {
    "name": "Rock Drawings in Valcamonica",
    "category": "Cultural",
    "latitude": 45.95705556,
    "longitude": 10.29733333,
    "distance_from_budapest_km": 687.64,
    "states": "Italy",
    "date_inscribed": "1979"
  },
  {
    "name": "Museumsinsel (Museum Island), Berlin",
    "category": "Cultural",
    "latitude": 52.51972222,
    "longitude": 13.39861111,
    "distance_from_budapest_km": 688.28,
    "states": "Germany",
    "date_inscribed": "1999"
  },
  {
    "name": "Palaces and Parks of Potsdam and Berlin",
    "category": "Cultural",
    "latitude": 52.4,
    "longitude": 13.03333333,
    "distance_from_budapest_km": 693.65,
    "states": "Germany",
    "date_inscribed": "1990"
  },
  {
    "name": "Caves and Ice Age Art in the Swabian Jura",
    "category": "Cultural",
    "latitude": 48.3877777778,
    "longitude": 9.7655555556,
    "distance_from_budapest_km": 697.44,
    "states": "Germany",
    "date_inscribed": "2017"
  },
  {
    "name": "Jewish-Medieval Heritage of Erfurt",
    "category": "Cultural",
    "latitude": 50.9786638889,
    "longitude": 11.0292333333,
    "distance_from_budapest_km": 698.01,
    "states": "Germany",
    "date_inscribed": "2023"
  },
  {
    "name": "Cathedral, Torre Civica and Piazza Grande, Modena",
    "category": "Cultural",
    "latitude": 44.64624,
    "longitude": 10.92568,
    "distance_from_budapest_km": 701.21,
    "states": "Italy",
    "date_inscribed": "1997"
  },
  {
    "name": "Assisi, the Basilica of San Francesco and Other Franciscan Sites",
    "category": "Cultural",
    "latitude": 43.06616667,
    "longitude": 12.62244444,
    "distance_from_budapest_km": 703.08,
    "states": "Italy",
    "date_inscribed": "2000"
  },
  {
    "name": "Rhaetian Railway in the Albula / Bernina Landscapes",
    "category": "Cultural",
    "latitude": 46.4983333333,
    "longitude": 9.8463888889,
    "distance_from_budapest_km": 705.6,
    "states": "Italy,Switzerland",
    "date_inscribed": "2008"
  },
  {
    "name": "Würzburg Residence with the Court Gardens and Residence Square",
    "category": "Cultural",
    "latitude": 49.79278,
    "longitude": 9.93889,
    "distance_from_budapest_km": 715.12,
    "states": "Germany",
    "date_inscribed": "1981"
  },
  {
    "name": "Medici Villas and Gardens in Tuscany",
    "category": "Cultural",
    "latitude": 43.8577777778,
    "longitude": 11.3041666667,
    "distance_from_budapest_km": 724.07,
    "states": "Italy",
    "date_inscribed": "2013"
  },
  {
    "name": "Abbey of St Gall",
    "category": "Cultural",
    "latitude": 47.42333,
    "longitude": 9.37778,
    "distance_from_budapest_km": 725.99,
    "states": "Switzerland",
    "date_inscribed": "1983"
  },
  {
    "name": "Srebarna Nature Reserve",
    "category": "Natural",
    "latitude": 44.11444,
    "longitude": 27.07806,
    "distance_from_budapest_km": 727.27,
    "states": "Bulgaria",
    "date_inscribed": "1983"
  },
  {
    "name": "Castle of the Teutonic Order in Malbork",
    "category": "Cultural",
    "latitude": 54.041,
    "longitude": 19.0297222222,
    "distance_from_budapest_km": 727.56,
    "states": "Poland",
    "date_inscribed": "1997"
  },
  {
    "name": "Pirin National Park",
    "category": "Natural",
    "latitude": 41.7427222222,
    "longitude": 23.4304722222,
    "distance_from_budapest_km": 727.9,
    "states": "Bulgaria",
    "date_inscribed": "1983"
  },
  {
    "name": "Thracian Tomb of Sveshtari",
    "category": "Cultural",
    "latitude": 43.66667,
    "longitude": 26.66667,
    "distance_from_budapest_km": 730.03,
    "states": "Bulgaria",
    "date_inscribed": "1985"
  },
  {
    "name": "Historic Centre of Florence",
    "category": "Cultural",
    "latitude": 43.77306,
    "longitude": 11.25611,
    "distance_from_budapest_km": 732.81,
    "states": "Italy",
    "date_inscribed": "1982"
  },
  {
    "name": "Natural and Cultural Heritage of the Ohrid region",
    "category": "Mixed",
    "latitude": 40.9918333333,
    "longitude": 20.7041666667,
    "distance_from_budapest_km": 735.43,
    "states": "Albania,North Macedonia",
    "date_inscribed": "1979"
  },
  {
    "name": "Thracian Tomb of Kazanlak",
    "category": "Cultural",
    "latitude": 42.625774,
    "longitude": 25.399172,
    "distance_from_budapest_km": 736.35,
    "states": "Bulgaria",
    "date_inscribed": "1979"
  },
  {
    "name": "Collegiate Church, Castle and Old Town of Quedlinburg",
    "category": "Cultural",
    "latitude": 51.78333,
    "longitude": 11.15,
    "distance_from_budapest_km": 740.81,
    "states": "Germany",
    "date_inscribed": "1994"
  },
  {
    "name": "Wartburg Castle",
    "category": "Cultural",
    "latitude": 50.96677778,
    "longitude": 10.307,
    "distance_from_budapest_km": 741.5,
    "states": "Germany",
    "date_inscribed": "1999"
  },
  {
    "name": "Swiss Tectonic Arena Sardona",
    "category": "Natural",
    "latitude": 46.9166666667,
    "longitude": 9.25,
    "distance_from_budapest_km": 741.87,
    "states": "Switzerland",
    "date_inscribed": "2008"
  },
  {
    "name": "Venetian Works of Defence between the 16th and 17th Centuries: <em>Stato da Terra</em> – Western <em>Stato da Mar</em>",
    "category": "Cultural",
    "latitude": 45.7033333333,
    "longitude": 9.6636111111,
    "distance_from_budapest_km": 743.11,
    "states": "Croatia,Italy,Montenegro",
    "date_inscribed": "2017"
  },
  {
    "name": "Castel del Monte",
    "category": "Cultural",
    "latitude": 41.08480556,
    "longitude": 16.27094444,
    "distance_from_budapest_km": 746.26,
    "states": "Italy",
    "date_inscribed": "1996"
  },
  {
    "name": "Monastic Island of Reichenau",
    "category": "Cultural",
    "latitude": 47.69872222,
    "longitude": 9.061305556,
    "distance_from_budapest_km": 748.05,
    "states": "Germany",
    "date_inscribed": "2000"
  },
  {
    "name": "Evaporitic Karst and Caves of Northern Apennines",
    "category": "Natural",
    "latitude": 44.3799444444,
    "longitude": 10.3889166667,
    "distance_from_budapest_km": 752.89,
    "states": "Italy",
    "date_inscribed": "2023"
  },
  {
    "name": "Crespi d'Adda",
    "category": "Cultural",
    "latitude": 45.59333,
    "longitude": 9.53833,
    "distance_from_budapest_km": 756.35,
    "states": "Italy",
    "date_inscribed": "1995"
  },
  {
    "name": "Historic Centre of the City of Pienza",
    "category": "Cultural",
    "latitude": 43.07694444,
    "longitude": 11.67861111,
    "distance_from_budapest_km": 756.59,
    "states": "Italy",
    "date_inscribed": "1996"
  },
  {
    "name": "Historic Centre of Siena",
    "category": "Cultural",
    "latitude": 43.31861111,
    "longitude": 11.33166667,
    "distance_from_budapest_km": 759.7,
    "states": "Italy",
    "date_inscribed": "1995"
  },
  {
    "name": "The <I>Trulli</I> of Alberobello",
    "category": "Cultural",
    "latitude": 40.7825,
    "longitude": 17.23694,
    "distance_from_budapest_km": 760.4,
    "states": "Italy",
    "date_inscribed": "1996"
  },
  {
    "name": "Val d'Orcia",
    "category": "Cultural",
    "latitude": 43.06666667,
    "longitude": 11.55,
    "distance_from_budapest_km": 765.02,
    "states": "Italy",
    "date_inscribed": "2004"
  },
  {
    "name": "Historic Centre of San Gimignano",
    "category": "Cultural",
    "latitude": 43.46806,
    "longitude": 11.04167,
    "distance_from_budapest_km": 767.24,
    "states": "Italy",
    "date_inscribed": "1990"
  },
  {
    "name": "<I>Sacri Monti</I> of Piedmont and Lombardy",
    "category": "Cultural",
    "latitude": 45.97455556,
    "longitude": 9.169555556,
    "distance_from_budapest_km": 770.48,
    "states": "Italy",
    "date_inscribed": "2003"
  },
  {
    "name": "Maulbronn Monastery Complex",
    "category": "Cultural",
    "latitude": 49.00083,
    "longitude": 8.81306,
    "distance_from_budapest_km": 774.83,
    "states": "Germany",
    "date_inscribed": "1993"
  },
  {
    "name": "Three Castles, Defensive Wall and Ramparts of the Market-Town of Bellinzona",
    "category": "Cultural",
    "latitude": 46.19314,
    "longitude": 9.02242,
    "distance_from_budapest_km": 775.0,
    "states": "Switzerland",
    "date_inscribed": "2000"
  },
  {
    "name": "The Sassi and the Park of the Rupestrian Churches of Matera",
    "category": "Cultural",
    "latitude": 40.66638889,
    "longitude": 16.61027778,
    "distance_from_budapest_km": 783.92,
    "states": "Italy",
    "date_inscribed": "1993"
  },
  {
    "name": "Madara Rider",
    "category": "Cultural",
    "latitude": 43.277375,
    "longitude": 27.118894,
    "distance_from_budapest_km": 785.62,
    "states": "Bulgaria",
    "date_inscribed": "1979"
  },
  {
    "name": "Church and Dominican Convent of Santa Maria delle Grazie with “The Last Supper” by Leonardo da Vinci",
    "category": "Cultural",
    "latitude": 45.466,
    "longitude": 9.171,
    "distance_from_budapest_km": 788.07,
    "states": "Italy",
    "date_inscribed": "1980"
  },
  {
    "name": "Villa d'Este, Tivoli",
    "category": "Cultural",
    "latitude": 41.96391667,
    "longitude": 12.79625,
    "distance_from_budapest_km": 788.09,
    "states": "Italy",
    "date_inscribed": "2001"
  },
  {
    "name": "Mines of Rammelsberg, Historic Town of Goslar and Upper Harz Water Management System",
    "category": "Cultural",
    "latitude": 51.82,
    "longitude": 10.34,
    "distance_from_budapest_km": 788.52,
    "states": "Germany",
    "date_inscribed": "1992"
  },
  {
    "name": "Villa Adriana (Tivoli)",
    "category": "Cultural",
    "latitude": 41.94416667,
    "longitude": 12.77197222,
    "distance_from_budapest_km": 791.04,
    "states": "Italy",
    "date_inscribed": "1999"
  },
  {
    "name": "Piazza del Duomo, Pisa",
    "category": "Cultural",
    "latitude": 43.72305556,
    "longitude": 10.39638889,
    "distance_from_budapest_km": 791.92,
    "states": "Italy",
    "date_inscribed": "1987"
  },
  {
    "name": "Monte San Giorgio",
    "category": "Natural",
    "latitude": 45.8888888889,
    "longitude": 8.9138888889,
    "distance_from_budapest_km": 792.15,
    "states": "Italy,Switzerland",
    "date_inscribed": "2003"
  },
  {
    "name": "Messel Pit Fossil Site",
    "category": "Natural",
    "latitude": 49.918,
    "longitude": 8.757,
    "distance_from_budapest_km": 800.31,
    "states": "Germany",
    "date_inscribed": "1995"
  },
  {
    "name": "Mathildenhöhe Darmstadt",
    "category": "Cultural",
    "latitude": 49.8763888889,
    "longitude": 8.6675,
    "distance_from_budapest_km": 805.25,
    "states": "Germany",
    "date_inscribed": "2021"
  },
  {
    "name": "Abbey and Altenmünster of Lorsch",
    "category": "Cultural",
    "latitude": 49.65369,
    "longitude": 8.56858,
    "distance_from_budapest_km": 806.04,
    "states": "Germany",
    "date_inscribed": "1991"
  },
  {
    "name": "18th-Century Royal Palace at Caserta with the Park, the Aqueduct of Vanvitelli, and the San Leucio Complex",
    "category": "Cultural",
    "latitude": 41.07333,
    "longitude": 14.32639,
    "distance_from_budapest_km": 806.55,
    "states": "Italy",
    "date_inscribed": "1997"
  },
  {
    "name": "Speyer Cathedral",
    "category": "Cultural",
    "latitude": 49.3172222222,
    "longitude": 8.4423888889,
    "distance_from_budapest_km": 807.25,
    "states": "Germany",
    "date_inscribed": "1981"
  },
  {
    "name": "ShUM Sites of Speyer, Worms and Mainz",
    "category": "Cultural",
    "latitude": 49.3162111111,
    "longitude": 8.4395388889,
    "distance_from_budapest_km": 807.43,
    "states": "Germany",
    "date_inscribed": "2021"
  },
  {
    "name": "Historic Centre of Rome, the Properties of the Holy See in that City Enjoying Extraterritorial Rights and San Paolo Fuori le Mura",
    "category": "Cultural",
    "latitude": 41.89022222,
    "longitude": 12.49230556,
    "distance_from_budapest_km": 809.76,
    "states": "Holy See,Italy",
    "date_inscribed": "1980"
  },
  {
    "name": "Vatican City",
    "category": "Cultural",
    "latitude": 41.90216,
    "longitude": 12.45736,
    "distance_from_budapest_km": 810.47,
    "states": "Holy See",
    "date_inscribed": "1984"
  },
  {
    "name": "Portovenere, Cinque Terre, and the Islands (Palmaria, Tino and Tinetto)",
    "category": "Cultural",
    "latitude": 44.10694,
    "longitude": 9.72917,
    "distance_from_budapest_km": 813.57,
    "states": "Italy",
    "date_inscribed": "1997"
  },
  {
    "name": "Prehistoric Pile Dwellings around the Alps",
    "category": "Cultural",
    "latitude": 47.2783333333,
    "longitude": 8.2075,
    "distance_from_budapest_km": 815.21,
    "states": "Austria,France,Germany,Italy,Slovenia,Switzerland",
    "date_inscribed": "2011"
  },
  {
    "name": "Bergpark Wilhelmshöhe",
    "category": "Cultural",
    "latitude": 51.3158333333,
    "longitude": 9.3930555556,
    "distance_from_budapest_km": 816.0,
    "states": "Germany",
    "date_inscribed": "2013"
  },
  {
    "name": "Etruscan Necropolises of Cerveteri and Tarquinia",
    "category": "Cultural",
    "latitude": 42.00683333,
    "longitude": 12.10188889,
    "distance_from_budapest_km": 819.69,
    "states": "Italy",
    "date_inscribed": "2004"
  },
  {
    "name": "Archaeological Site of Aigai (modern name Vergina)",
    "category": "Cultural",
    "latitude": 40.47139,
    "longitude": 22.31833,
    "distance_from_budapest_km": 823.95,
    "states": "Greece",
    "date_inscribed": "1996"
  },
  {
    "name": "Paleochristian and Byzantine Monuments of Thessalonika",
    "category": "Cultural",
    "latitude": 40.63833,
    "longitude": 22.965,
    "distance_from_budapest_km": 824.41,
    "states": "Greece",
    "date_inscribed": "1988"
  },
  {
    "name": "Via Appia. <em>Regina Viarum</em>",
    "category": "Cultural",
    "latitude": 41.2927222222,
    "longitude": 13.2627222222,
    "distance_from_budapest_km": 828.19,
    "states": "Italy",
    "date_inscribed": "2024"
  },
  {
    "name": "Fagus Factory in Alfeld",
    "category": "Cultural",
    "latitude": 51.9838888889,
    "longitude": 9.8122222222,
    "distance_from_budapest_km": 828.75,
    "states": "Germany",
    "date_inscribed": "2011"
  },
  {
    "name": "Historic Centres of Berat and Gjirokastra",
    "category": "Cultural",
    "latitude": 40.0741666667,
    "longitude": 20.1408333333,
    "distance_from_budapest_km": 830.17,
    "states": "Albania",
    "date_inscribed": "2005"
  },
  {
    "name": "Historic Centre of Naples",
    "category": "Cultural",
    "latitude": 40.85138889,
    "longitude": 14.26277778,
    "distance_from_budapest_km": 831.09,
    "states": "Italy",
    "date_inscribed": "1995"
  },
  {
    "name": "St Mary's Cathedral and St Michael's Church at Hildesheim",
    "category": "Cultural",
    "latitude": 52.15278,
    "longitude": 9.94389,
    "distance_from_budapest_km": 831.83,
    "states": "Germany",
    "date_inscribed": "1985"
  },
  {
    "name": "Archaeological Site of Philippi",
    "category": "Cultural",
    "latitude": 41.0147222222,
    "longitude": 24.2852777778,
    "distance_from_budapest_km": 832.71,
    "states": "Greece",
    "date_inscribed": "2016"
  },
  {
    "name": "Archaeological Areas of Pompei, Herculaneum and Torre Annunziata",
    "category": "Cultural",
    "latitude": 40.75,
    "longitude": 14.48333333,
    "distance_from_budapest_km": 833.47,
    "states": "Italy",
    "date_inscribed": "1997"
  },
  {
    "name": "Architectural, Residential and Cultural Complex of the Radziwill Family at Nesvizh",
    "category": "Cultural",
    "latitude": 53.22278,
    "longitude": 26.69139,
    "distance_from_budapest_km": 835.61,
    "states": "Belarus",
    "date_inscribed": "2005"
  },
  {
    "name": "Carolingian Westwork and Civitas Corvey",
    "category": "Cultural",
    "latitude": 51.7782777778,
    "longitude": 9.41025,
    "distance_from_budapest_km": 840.01,
    "states": "Germany",
    "date_inscribed": "2014"
  },
  {
    "name": "Costiera Amalfitana",
    "category": "Cultural",
    "latitude": 40.6333333333,
    "longitude": 14.6027777778,
    "distance_from_budapest_km": 841.27,
    "states": "Italy",
    "date_inscribed": "1997"
  },
  {
    "name": "Swiss Alps Jungfrau-Aletsch",
    "category": "Natural",
    "latitude": 46.5,
    "longitude": 8.0333333333,
    "distance_from_budapest_km": 841.33,
    "states": "Switzerland",
    "date_inscribed": "2001"
  },
  {
    "name": "Mir Castle Complex",
    "category": "Cultural",
    "latitude": 53.45108333,
    "longitude": 26.47272222,
    "distance_from_budapest_km": 844.55,
    "states": "Belarus",
    "date_inscribed": "2000"
  },
  {
    "name": "Danube Delta",
    "category": "Natural",
    "latitude": 45.08333,
    "longitude": 29.5,
    "distance_from_budapest_km": 846.55,
    "states": "Romania",
    "date_inscribed": "1991"
  },
  {
    "name": "Strasbourg, Grande-Île and <em>Neustadt</em>",
    "category": "Cultural",
    "latitude": 48.5844444444,
    "longitude": 7.7488888889,
    "distance_from_budapest_km": 847.29,
    "states": "France",
    "date_inscribed": "1988"
  },
  {
    "name": "Genoa: <i>Le Strade Nuove</i> and the system of the<i> Palazzi dei Rolli</i>",
    "category": "Cultural",
    "latitude": 44.4122222222,
    "longitude": 8.9311111111,
    "distance_from_budapest_km": 852.65,
    "states": "Italy",
    "date_inscribed": "2006"
  },
  {
    "name": "Zagori Cultural Landscape",
    "category": "Cultural",
    "latitude": 39.9052777778,
    "longitude": 20.8197222222,
    "distance_from_budapest_km": 856.23,
    "states": "Greece",
    "date_inscribed": "2023"
  },
  {
    "name": "Cilento and Vallo di Diano National Park with the Archeological Sites of Paestum and Velia, and the Certosa di Padula",
    "category": "Cultural",
    "latitude": 40.28333333,
    "longitude": 15.26666667,
    "distance_from_budapest_km": 857.05,
    "states": "Italy",
    "date_inscribed": "1998"
  },
  {
    "name": "Historic Centres of Stralsund and Wismar",
    "category": "Cultural",
    "latitude": 54.3025,
    "longitude": 13.08527778,
    "distance_from_budapest_km": 863.52,
    "states": "Germany",
    "date_inscribed": "2002"
  },
  {
    "name": "Butrint",
    "category": "Cultural",
    "latitude": 39.745732,
    "longitude": 20.02095,
    "distance_from_budapest_km": 865.59,
    "states": "Albania",
    "date_inscribed": "1992"
  },
  {
    "name": "Schwerin Residence Ensemble",
    "category": "Cultural",
    "latitude": 53.6241666667,
    "longitude": 11.4188888889,
    "distance_from_budapest_km": 867.24,
    "states": "Germany",
    "date_inscribed": "2024"
  },
  {
    "name": "Ancient City of Nessebar",
    "category": "Cultural",
    "latitude": 42.6591111111,
    "longitude": 27.7360277778,
    "distance_from_budapest_km": 868.41,
    "states": "Bulgaria",
    "date_inscribed": "1983"
  },
  {
    "name": "Curonian Spit",
    "category": "Cultural",
    "latitude": 55.27458,
    "longitude": 20.96239,
    "distance_from_budapest_km": 874.86,
    "states": "Lithuania,Russian Federation",
    "date_inscribed": "2000"
  },
  {
    "name": "Old City of Berne",
    "category": "Cultural",
    "latitude": 46.94806,
    "longitude": 7.45028,
    "distance_from_budapest_km": 876.56,
    "states": "Switzerland",
    "date_inscribed": "1983"
  },
  {
    "name": "Old Town of Corfu",
    "category": "Cultural",
    "latitude": 39.6239413889,
    "longitude": 19.9275,
    "distance_from_budapest_km": 878.44,
    "states": "Greece",
    "date_inscribed": "2007"
  },
  {
    "name": "Selimiye Mosque and its Social Complex",
    "category": "Cultural",
    "latitude": 41.6777777778,
    "longitude": 26.5594444444,
    "distance_from_budapest_km": 878.6,
    "states": "Türkiye",
    "date_inscribed": "2011"
  },
  {
    "name": "Upper Middle Rhine Valley",
    "category": "Cultural",
    "latitude": 50.17361111,
    "longitude": 7.694166667,
    "distance_from_budapest_km": 881.04,
    "states": "Germany",
    "date_inscribed": "2002"
  },
  {
    "name": "Ivrea, industrial city of the 20th century",
    "category": "Cultural",
    "latitude": 45.4575,
    "longitude": 7.8691666667,
    "distance_from_budapest_km": 884.1,
    "states": "Italy",
    "date_inscribed": "2018"
  },
  {
    "name": "Meteora",
    "category": "Mixed",
    "latitude": 39.71667,
    "longitude": 21.63333,
    "distance_from_budapest_km": 889.92,
    "states": "Greece",
    "date_inscribed": "1988"
  },
  {
    "name": "Modernist Kaunas: Architecture of Optimism, 1919-1939",
    "category": "Cultural",
    "latitude": 54.8969444444,
    "longitude": 23.9291666667,
    "distance_from_budapest_km": 889.94,
    "states": "Lithuania",
    "date_inscribed": "2023"
  },
  {
    "name": "The Historic Centre of Odesa",
    "category": "Cultural",
    "latitude": 46.48645,
    "longitude": 30.7416138889,
    "distance_from_budapest_km": 893.73,
    "states": "Ukraine",
    "date_inscribed": "2023"
  },
  {
    "name": "Kyiv: Saint-Sophia Cathedral and Related Monastic Buildings, Kyiv-Pechersk Lavra",
    "category": "Cultural",
    "latitude": 50.45258,
    "longitude": 30.51686,
    "distance_from_budapest_km": 898.6,
    "states": "Ukraine",
    "date_inscribed": "1990"
  },
  {
    "name": "Mount Athos",
    "category": "Mixed",
    "latitude": 40.26667,
    "longitude": 24.21667,
    "distance_from_budapest_km": 904.29,
    "states": "Greece",
    "date_inscribed": "1988"
  },
  {
    "name": "Vilnius Historic Centre",
    "category": "Cultural",
    "latitude": 54.68667,
    "longitude": 25.29306,
    "distance_from_budapest_km": 910.02,
    "states": "Lithuania",
    "date_inscribed": "1994"
  },
  {
    "name": "Vineyard Landscape of Piedmont: Langhe-Roero and Monferrato",
    "category": "Cultural",
    "latitude": 44.6086111111,
    "longitude": 7.9636111111,
    "distance_from_budapest_km": 912.14,
    "states": "Italy",
    "date_inscribed": "2014"
  },
  {
    "name": "Residences of the Royal House of Savoy",
    "category": "Cultural",
    "latitude": 45.07253,
    "longitude": 7.68572,
    "distance_from_budapest_km": 912.26,
    "states": "Italy",
    "date_inscribed": "1997"
  },
  {
    "name": "Kernavė Archaeological Site (Cultural Reserve of Kernavė)",
    "category": "Cultural",
    "latitude": 54.879,
    "longitude": 24.853,
    "distance_from_budapest_km": 914.53,
    "states": "Lithuania",
    "date_inscribed": "2004"
  },
  {
    "name": "Hanseatic City of Lübeck",
    "category": "Cultural",
    "latitude": 53.86667,
    "longitude": 10.69167,
    "distance_from_budapest_km": 919.33,
    "states": "Germany",
    "date_inscribed": "1987"
  },
  {
    "name": "Völklingen Ironworks",
    "category": "Cultural",
    "latitude": 49.2487222222,
    "longitude": 6.8442222222,
    "distance_from_budapest_km": 920.54,
    "states": "Germany",
    "date_inscribed": "1994"
  },
  {
    "name": "La Chaux-de-Fonds / Le Locle, Watchmaking Town Planning",
    "category": "Cultural",
    "latitude": 47.1038888889,
    "longitude": 6.8327777778,
    "distance_from_budapest_km": 920.61,
    "states": "Switzerland",
    "date_inscribed": "2009"
  },
  {
    "name": "Speicherstadt and Kontorhaus District with Chilehaus",
    "category": "Cultural",
    "latitude": 53.5455555556,
    "longitude": 9.9994444444,
    "distance_from_budapest_km": 926.37,
    "states": "Germany",
    "date_inscribed": "2015"
  },
  {
    "name": "The Architectural Work of Le Corbusier, an Outstanding Contribution to the Modern Movement",
    "category": "Cultural",
    "latitude": 46.4684138889,
    "longitude": 6.8293361111,
    "distance_from_budapest_km": 932.36,
    "states": "Argentina,Belgium,France,Germany,India,Japan,Switzerland",
    "date_inscribed": "2016"
  },
  {
    "name": "Lavaux, Vineyard Terraces",
    "category": "Cultural",
    "latitude": 46.4919444444,
    "longitude": 6.7461111111,
    "distance_from_budapest_km": 938.09,
    "states": "Switzerland",
    "date_inscribed": "2007"
  },
  {
    "name": "Roman Monuments, Cathedral of St Peter and Church of Our Lady in Trier",
    "category": "Cultural",
    "latitude": 49.75,
    "longitude": 6.633333333,
    "distance_from_budapest_km": 944.42,
    "states": "Germany",
    "date_inscribed": "1986"
  },
  {
    "name": "Town Hall and Roland on the Marketplace of Bremen",
    "category": "Cultural",
    "latitude": 53.07597222,
    "longitude": 8.807472222,
    "distance_from_budapest_km": 954.04,
    "states": "Germany",
    "date_inscribed": "2004"
  },
  {
    "name": "Castles of Augustusburg and Falkenlust at Brühl",
    "category": "Cultural",
    "latitude": 50.82502778,
    "longitude": 6.909777778,
    "distance_from_budapest_km": 955.05,
    "states": "Germany",
    "date_inscribed": "1984"
  },
  {
    "name": "Cologne Cathedral",
    "category": "Cultural",
    "latitude": 50.94111111,
    "longitude": 6.957222222,
    "distance_from_budapest_km": 955.99,
    "states": "Germany",
    "date_inscribed": "1996"
  },
  {
    "name": "Place Stanislas, Place de la Carrière and Place d'Alliance in Nancy",
    "category": "Cultural",
    "latitude": 48.69361111,
    "longitude": 6.183333333,
    "distance_from_budapest_km": 962.85,
    "states": "France",
    "date_inscribed": "1983"
  },
  {
    "name": "Zollverein Coal Mine Industrial Complex in Essen",
    "category": "Cultural",
    "latitude": 51.49138889,
    "longitude": 7.046111111,
    "distance_from_budapest_km": 971.82,
    "states": "Germany",
    "date_inscribed": "2001"
  },
  {
    "name": "City of Luxembourg: its Old Quarters and Fortifications",
    "category": "Cultural",
    "latitude": 49.61,
    "longitude": 6.13333,
    "distance_from_budapest_km": 977.22,
    "states": "Luxembourg",
    "date_inscribed": "1994"
  },
  {
    "name": "Stevns Klint",
    "category": "Natural",
    "latitude": 55.2672222222,
    "longitude": 12.4233333333,
    "distance_from_budapest_km": 977.35,
    "states": "Denmark",
    "date_inscribed": "2014"
  },
  {
    "name": "Fortifications of Vauban",
    "category": "Cultural",
    "latitude": 47.2361111111,
    "longitude": 6.0269444444,
    "distance_from_budapest_km": 979.34,
    "states": "France",
    "date_inscribed": "2008"
  },
  {
    "name": "Naval Port of Karlskrona",
    "category": "Cultural",
    "latitude": 56.16667,
    "longitude": 15.58333,
    "distance_from_budapest_km": 992.44,
    "states": "Sweden",
    "date_inscribed": "1998"
  },
  {
    "name": "From the Great Saltworks of Salins-les-Bains to the Royal Saltworks of Arc-et-Senans, the Production of Open-pan Salt",
    "category": "Cultural",
    "latitude": 46.9375,
    "longitude": 5.8763888889,
    "distance_from_budapest_km": 994.95,
    "states": "France",
    "date_inscribed": "1982"
  },
  {
    "name": "Agricultural Landscape of Southern Öland",
    "category": "Cultural",
    "latitude": 56.325,
    "longitude": 16.48333,
    "distance_from_budapest_km": 996.89,
    "states": "Sweden",
    "date_inscribed": "2000"
  },
  {
    "name": "Wadden Sea",
    "category": "Natural",
    "latitude": 53.5286111111,
    "longitude": 8.5561111111,
    "distance_from_budapest_km": 997.78,
    "states": "Denmark,Germany,Netherlands (Kingdom of the)",
    "date_inscribed": "2009"
  },
  {
    "name": "Gulf of Porto: Calanche of Piana, Gulf of Girolata, Scandola Reserve",
    "category": "Natural",
    "latitude": 42.32519444,
    "longitude": 8.628833333,
    "distance_from_budapest_km": 1000.14,
    "states": "France",
    "date_inscribed": "1983"
  },
  {
    "name": "Nice, Winter Resort Town of the Riviera",
    "category": "Cultural",
    "latitude": 43.7016944444,
    "longitude": 7.2723055556,
    "distance_from_budapest_km": 1006.78,
    "states": "France",
    "date_inscribed": "2021"
  },
  {
    "name": "Aachen Cathedral",
    "category": "Cultural",
    "latitude": 50.7747468537,
    "longitude": 6.083919968,
    "distance_from_budapest_km": 1008.88,
    "states": "Germany",
    "date_inscribed": "1978"
  },
  {
    "name": "The Great Spa Towns of Europe",
    "category": "Cultural",
    "latitude": 50.4922222222,
    "longitude": 5.8669444444,
    "distance_from_budapest_km": 1015.47,
    "states": "Austria,Belgium,Czechia,France,Germany,Italy,United Kingdom of Great Britain and Northern Ireland",
    "date_inscribed": "2021"
  },
  {
    "name": "Archaeological Site of Troy",
    "category": "Cultural",
    "latitude": 39.95644,
    "longitude": 26.239,
    "distance_from_budapest_km": 1017.74,
    "states": "Türkiye",
    "date_inscribed": "1998"
  },
  {
    "name": "Archaeological Border complex of Hedeby and the Danevirke",
    "category": "Cultural",
    "latitude": 54.4619444444,
    "longitude": 9.4541111111,
    "distance_from_budapest_km": 1022.88,
    "states": "Germany",
    "date_inscribed": "2018"
  },
  {
    "name": "Roskilde Cathedral",
    "category": "Cultural",
    "latitude": 55.6426654094,
    "longitude": 12.0798998457,
    "distance_from_budapest_km": 1024.31,
    "states": "Denmark",
    "date_inscribed": "1995"
  },
  {
    "name": "Archaeological Site of Delphi",
    "category": "Cultural",
    "latitude": 38.48149,
    "longitude": 22.49617,
    "distance_from_budapest_km": 1040.95,
    "states": "Greece",
    "date_inscribed": "1987"
  },
  {
    "name": "The par force hunting landscape in North Zealand",
    "category": "Cultural",
    "latitude": 55.9136111111,
    "longitude": 12.3577777778,
    "distance_from_budapest_km": 1041.81,
    "states": "Denmark",
    "date_inscribed": "2015"
  },
  {
    "name": "Kronborg Castle",
    "category": "Cultural",
    "latitude": 56.03889,
    "longitude": 12.62083333,
    "distance_from_budapest_km": 1046.35,
    "states": "Denmark",
    "date_inscribed": "2000"
  },
  {
    "name": "Isole Eolie (Aeolian Islands)",
    "category": "Natural",
    "latitude": 38.48786111,
    "longitude": 14.94558333,
    "distance_from_budapest_km": 1055.37,
    "states": "Italy",
    "date_inscribed": "2000"
  },
  {
    "name": "Monasteries of Daphni, Hosios Loukas and Nea Moni of Chios",
    "category": "Cultural",
    "latitude": 38.3952777778,
    "longitude": 22.7466666667,
    "distance_from_budapest_km": 1055.83,
    "states": "Greece",
    "date_inscribed": "1990"
  },
  {
    "name": "The Climats, terroirs of Burgundy",
    "category": "Cultural",
    "latitude": 47.0580555556,
    "longitude": 4.8644444444,
    "distance_from_budapest_km": 1069.04,
    "states": "France",
    "date_inscribed": "2015"
  },
  {
    "name": "Historic Areas of Istanbul",
    "category": "Cultural",
    "latitude": 41.00847,
    "longitude": 28.97993,
    "distance_from_budapest_km": 1069.61,
    "states": "Türkiye",
    "date_inscribed": "1985"
  },
  {
    "name": "Old town of Kuldīga",
    "category": "Cultural",
    "latitude": 56.96775,
    "longitude": 21.9715277778,
    "distance_from_budapest_km": 1071.5,
    "states": "Latvia",
    "date_inscribed": "2023"
  },
  {
    "name": "Colonies of Benevolence",
    "category": "Cultural",
    "latitude": 53.0422222222,
    "longitude": 6.3915888889,
    "distance_from_budapest_km": 1087.61,
    "states": "Belgium,Netherlands (Kingdom of the)",
    "date_inscribed": "2021"
  },
  {
    "name": "Moravian Church Settlements",
    "category": "Cultural",
    "latitude": 55.3555555556,
    "longitude": 9.4813888889,
    "distance_from_budapest_km": 1094.56,
    "states": "Denmark,Germany,United Kingdom of Great Britain and Northern Ireland,United States of America",
    "date_inscribed": "2015"
  },
  {
    "name": "Cistercian Abbey of Fontenay",
    "category": "Cultural",
    "latitude": 47.63944,
    "longitude": 4.38911,
    "distance_from_budapest_km": 1097.66,
    "states": "France",
    "date_inscribed": "1981"
  },
  {
    "name": "Historic Site of Lyon",
    "category": "Cultural",
    "latitude": 45.76722,
    "longitude": 4.83333,
    "distance_from_budapest_km": 1100.07,
    "states": "France",
    "date_inscribed": "1998"
  },
  {
    "name": "Schokland and Surroundings",
    "category": "Cultural",
    "latitude": 52.63861111,
    "longitude": 5.771666667,
    "distance_from_budapest_km": 1103.66,
    "states": "Netherlands (Kingdom of the)",
    "date_inscribed": "1995"
  },
  {
    "name": "Historic Centre of Riga",
    "category": "Cultural",
    "latitude": 56.95417,
    "longitude": 24.11667,
    "distance_from_budapest_km": 1106.12,
    "states": "Latvia",
    "date_inscribed": "1997"
  },
  {
    "name": "Archaeological Site of Olympia",
    "category": "Cultural",
    "latitude": 37.64,
    "longitude": 21.634,
    "distance_from_budapest_km": 1116.36,
    "states": "Greece",
    "date_inscribed": "1989"
  },
  {
    "name": "Rietveld Schröderhuis (Rietveld Schröder House)",
    "category": "Cultural",
    "latitude": 52.0853333333,
    "longitude": 5.1475555556,
    "distance_from_budapest_km": 1117.65,
    "states": "Netherlands (Kingdom of the)",
    "date_inscribed": "2000"
  },
  {
    "name": "Ir.D.F. Woudagemaal (D.F. Wouda Steam Pumping Station)",
    "category": "Cultural",
    "latitude": 52.84583,
    "longitude": 5.67889,
    "distance_from_budapest_km": 1119.47,
    "states": "Netherlands (Kingdom of the)",
    "date_inscribed": "1998"
  },
  {
    "name": "Cathedral of Notre-Dame, Former Abbey of Saint-Rémi and Palace of Tau, Reims",
    "category": "Cultural",
    "latitude": 49.25333333,
    "longitude": 4.032777778,
    "distance_from_budapest_km": 1123.56,
    "states": "France",
    "date_inscribed": "1991"
  },
  {
    "name": "Stoclet House",
    "category": "Cultural",
    "latitude": 50.835,
    "longitude": 4.4161111111,
    "distance_from_budapest_km": 1123.88,
    "states": "Belgium",
    "date_inscribed": "2009"
  },
  {
    "name": "Flemish Béguinages",
    "category": "Cultural",
    "latitude": 51.03097222,
    "longitude": 4.47375,
    "distance_from_budapest_km": 1125.3,
    "states": "Belgium",
    "date_inscribed": "1998"
  },
  {
    "name": "Acropolis, Athens",
    "category": "Cultural",
    "latitude": 37.97087,
    "longitude": 23.72618,
    "distance_from_budapest_km": 1125.82,
    "states": "Greece",
    "date_inscribed": "1987"
  },
  {
    "name": "Archaeological Sites of Mycenae and Tiryns",
    "category": "Cultural",
    "latitude": 37.73333333,
    "longitude": 22.75,
    "distance_from_budapest_km": 1127.05,
    "states": "Greece",
    "date_inscribed": "1999"
  },
  {
    "name": "Major Town Houses of the Architect Victor Horta (Brussels)",
    "category": "Cultural",
    "latitude": 50.82806,
    "longitude": 4.36223,
    "distance_from_budapest_km": 1127.38,
    "states": "Belgium",
    "date_inscribed": "2000"
  },
  {
    "name": "La Grand-Place, Brussels",
    "category": "Cultural",
    "latitude": 50.84668,
    "longitude": 4.35242,
    "distance_from_budapest_km": 1128.53,
    "states": "Belgium",
    "date_inscribed": "1998"
  },
  {
    "name": "Champagne Hillsides, Houses and Cellars",
    "category": "Cultural",
    "latitude": 49.0775,
    "longitude": 3.9461111111,
    "distance_from_budapest_km": 1128.56,
    "states": "France",
    "date_inscribed": "2015"
  },
  {
    "name": "Hanseatic Town of Visby",
    "category": "Cultural",
    "latitude": 57.64167,
    "longitude": 18.29583,
    "distance_from_budapest_km": 1129.04,
    "states": "Sweden",
    "date_inscribed": "1995"
  },
  {
    "name": "Jelling Mounds, Runic Stones and Church",
    "category": "Cultural",
    "latitude": 55.75638889,
    "longitude": 9.42,
    "distance_from_budapest_km": 1131.01,
    "states": "Denmark",
    "date_inscribed": "1994"
  },
  {
    "name": "Mount Etna",
    "category": "Natural",
    "latitude": 37.7561111111,
    "longitude": 14.9966666667,
    "distance_from_budapest_km": 1132.21,
    "states": "Italy",
    "date_inscribed": "2013"
  },
  {
    "name": "The Four Lifts on the Canal du Centre and their Environs, La Louvière and Le Roeulx (Hainaut)",
    "category": "Cultural",
    "latitude": 50.48111,
    "longitude": 4.13722,
    "distance_from_budapest_km": 1134.62,
    "states": "Belgium",
    "date_inscribed": "1998"
  },
  {
    "name": "Plantin-Moretus House-Workshops-Museum Complex",
    "category": "Cultural",
    "latitude": 51.21833,
    "longitude": 4.39778,
    "distance_from_budapest_km": 1135.87,
    "states": "Belgium",
    "date_inscribed": "2005"
  },
  {
    "name": "Pergamon and its Multi-Layered Cultural Landscape",
    "category": "Cultural",
    "latitude": 39.1258333333,
    "longitude": 27.18,
    "distance_from_budapest_km": 1138.94,
    "states": "Türkiye",
    "date_inscribed": "2014"
  },
  {
    "name": "Arab-Norman Palermo and the Cathedral Churches of Cefalú and Monreale",
    "category": "Cultural",
    "latitude": 38.1108333333,
    "longitude": 13.3530555556,
    "distance_from_budapest_km": 1141.47,
    "states": "Italy",
    "date_inscribed": "2015"
  },
  {
    "name": "Bursa and Cumalıkızık: the Birth of the Ottoman Empire",
    "category": "Cultural",
    "latitude": 40.1847305556,
    "longitude": 29.0623361111,
    "distance_from_budapest_km": 1141.6,
    "states": "Türkiye",
    "date_inscribed": "2014"
  },
  {
    "name": "Mill Network at Kinderdijk-Elshout",
    "category": "Cultural",
    "latitude": 51.8825,
    "longitude": 4.649444444,
    "distance_from_budapest_km": 1141.64,
    "states": "Netherlands (Kingdom of the)",
    "date_inscribed": "1997"
  },
  {
    "name": "Temple of Apollo Epicurius at Bassae",
    "category": "Cultural",
    "latitude": 37.43498,
    "longitude": 21.89694,
    "distance_from_budapest_km": 1143.0,
    "states": "Greece",
    "date_inscribed": "1986"
  },
  {
    "name": "Neolithic Flint Mines at Spiennes (Mons)",
    "category": "Cultural",
    "latitude": 50.4201134823,
    "longitude": 3.9822689106,
    "distance_from_budapest_km": 1144.1,
    "states": "Belgium",
    "date_inscribed": "2000"
  },
  {
    "name": "Eisinga Planetarium in Franeker",
    "category": "Cultural",
    "latitude": 53.187375,
    "longitude": 5.5437527778,
    "distance_from_budapest_km": 1144.98,
    "states": "Netherlands (Kingdom of the)",
    "date_inscribed": "2023"
  },
  {
    "name": "Seventeenth-Century Canal Ring Area of Amsterdam inside the Singelgracht",
    "category": "Cultural",
    "latitude": 52.365,
    "longitude": 4.8877777778,
    "distance_from_budapest_km": 1145.75,
    "states": "Netherlands (Kingdom of the)",
    "date_inscribed": "2010"
  },
  {
    "name": "Vézelay, Church and Hill",
    "category": "Cultural",
    "latitude": 47.46638889,
    "longitude": 3.748333333,
    "distance_from_budapest_km": 1147.3,
    "states": "France",
    "date_inscribed": "1979"
  },
  {
    "name": "Sanctuary of Asklepios at Epidaurus",
    "category": "Cultural",
    "latitude": 37.6,
    "longitude": 23.0805555556,
    "distance_from_budapest_km": 1148.86,
    "states": "Greece",
    "date_inscribed": "1988"
  },
  {
    "name": "Droogmakerij de Beemster (Beemster Polder)",
    "category": "Cultural",
    "latitude": 52.54888889,
    "longitude": 4.911111111,
    "distance_from_budapest_km": 1152.3,
    "states": "Netherlands (Kingdom of the)",
    "date_inscribed": "1999"
  },
  {
    "name": "Major Mining Sites of Wallonia",
    "category": "Cultural",
    "latitude": 50.4352777778,
    "longitude": 3.8383333333,
    "distance_from_budapest_km": 1154.44,
    "states": "Belgium",
    "date_inscribed": "2012"
  },
  {
    "name": "Van Nellefabriek",
    "category": "Cultural",
    "latitude": 51.9244444444,
    "longitude": 4.4325,
    "distance_from_budapest_km": 1157.22,
    "states": "Netherlands (Kingdom of the)",
    "date_inscribed": "2014"
  },
  {
    "name": "Grimeton Radio Station, Varberg",
    "category": "Cultural",
    "latitude": 57.1,
    "longitude": 12.38333333,
    "distance_from_budapest_km": 1158.39,
    "states": "Sweden",
    "date_inscribed": "2004"
  },
  {
    "name": "Ancient City of Tauric Chersonese and its Chora",
    "category": "Cultural",
    "latitude": 44.6108333333,
    "longitude": 33.4913888889,
    "distance_from_budapest_km": 1158.48,
    "states": "Ukraine",
    "date_inscribed": "2013"
  },
  {
    "name": "Dutch Water Defence Lines",
    "category": "Cultural",
    "latitude": 52.555,
    "longitude": 4.7913888889,
    "distance_from_budapest_km": 1159.99,
    "states": "Netherlands (Kingdom of the)",
    "date_inscribed": "1996"
  },
  {
    "name": "Roman Theatre and its Surroundings and the \"Triumphal Arch\" of Orange",
    "category": "Cultural",
    "latitude": 44.13572222,
    "longitude": 4.808416667,
    "distance_from_budapest_km": 1162.56,
    "states": "France",
    "date_inscribed": "1981"
  },
  {
    "name": "Frontiers of the Roman Empire – The Lower German Limes",
    "category": "Cultural",
    "latitude": 52.1803333333,
    "longitude": 4.433,
    "distance_from_budapest_km": 1166.95,
    "states": "Germany,Netherlands (Kingdom of the)",
    "date_inscribed": "2021"
  },
  {
    "name": "Historic Centre of Avignon: Papal Palace, Episcopal Ensemble and Avignon Bridge",
    "category": "Cultural",
    "latitude": 43.95277778,
    "longitude": 4.806111111,
    "distance_from_budapest_km": 1171.07,
    "states": "France",
    "date_inscribed": "1995"
  },
  {
    "name": "Provins, Town of Medieval Fairs",
    "category": "Cultural",
    "latitude": 48.55972222,
    "longitude": 3.298888889,
    "distance_from_budapest_km": 1174.39,
    "states": "France",
    "date_inscribed": "2001"
  },
  {
    "name": "Nord-Pas de Calais Mining Basin",
    "category": "Cultural",
    "latitude": 50.4625,
    "longitude": 3.5461111111,
    "distance_from_budapest_km": 1175.33,
    "states": "France",
    "date_inscribed": "2012"
  },
  {
    "name": "Decorated Cave of Pont d’Arc, known as Grotte Chauvet-Pont d’Arc, Ardèche",
    "category": "Cultural",
    "latitude": 44.3875,
    "longitude": 4.4161111111,
    "distance_from_budapest_km": 1180.4,
    "states": "France",
    "date_inscribed": "2014"
  },
  {
    "name": "Su Nuraxi di Barumini",
    "category": "Cultural",
    "latitude": 39.70583333,
    "longitude": 8.991388889,
    "distance_from_budapest_km": 1183.59,
    "states": "Italy",
    "date_inscribed": "1997"
  },
  {
    "name": "Notre-Dame Cathedral in Tournai",
    "category": "Cultural",
    "latitude": 50.60603,
    "longitude": 3.38926,
    "distance_from_budapest_km": 1189.16,
    "states": "Belgium",
    "date_inscribed": "2000"
  },
  {
    "name": "Archaeological Site of Mystras",
    "category": "Cultural",
    "latitude": 37.08056,
    "longitude": 22.36667,
    "distance_from_budapest_km": 1189.93,
    "states": "Greece",
    "date_inscribed": "1989"
  },
  {
    "name": "Villa Romana del Casale",
    "category": "Cultural",
    "latitude": 37.36611,
    "longitude": 14.33417,
    "distance_from_budapest_km": 1190.38,
    "states": "Italy",
    "date_inscribed": "1997"
  },
  {
    "name": "Pont du Gard (Roman Aqueduct)",
    "category": "Cultural",
    "latitude": 43.94722222,
    "longitude": 4.535277778,
    "distance_from_budapest_km": 1191.05,
    "states": "France",
    "date_inscribed": "1985"
  },
  {
    "name": "Belfries of Belgium and France",
    "category": "Cultural",
    "latitude": 50.17444,
    "longitude": 3.23139,
    "distance_from_budapest_km": 1192.19,
    "states": "Belgium,France",
    "date_inscribed": "1999"
  },
  {
    "name": "Arles, Roman and Romanesque Monuments",
    "category": "Cultural",
    "latitude": 43.67763889,
    "longitude": 4.630694444,
    "distance_from_budapest_km": 1196.84,
    "states": "France",
    "date_inscribed": "1981"
  },
  {
    "name": "Syracuse and the Rocky Necropolis of Pantalica",
    "category": "Cultural",
    "latitude": 37.05944,
    "longitude": 15.29306,
    "distance_from_budapest_km": 1200.56,
    "states": "Italy",
    "date_inscribed": "2005"
  },
  {
    "name": "The Maison Carrée of Nîmes",
    "category": "Cultural",
    "latitude": 43.8382222222,
    "longitude": 4.3561944444,
    "distance_from_budapest_km": 1209.14,
    "states": "France",
    "date_inscribed": "2023"
  },
  {
    "name": "Historic Centre of Brugge",
    "category": "Cultural",
    "latitude": 51.20891,
    "longitude": 3.22527,
    "distance_from_budapest_km": 1214.63,
    "states": "Belgium",
    "date_inscribed": "2000"
  },
  {
    "name": "Palace and Park of Fontainebleau",
    "category": "Cultural",
    "latitude": 48.40194444,
    "longitude": 2.698055556,
    "distance_from_budapest_km": 1218.91,
    "states": "France",
    "date_inscribed": "1981"
  },
  {
    "name": "Archaeological Area of Agrigento",
    "category": "Cultural",
    "latitude": 37.28972222,
    "longitude": 13.59333333,
    "distance_from_budapest_km": 1219.26,
    "states": "Italy",
    "date_inscribed": "1997"
  },
  {
    "name": "Late Baroque Towns of the Val di Noto (South-Eastern Sicily)",
    "category": "Cultural",
    "latitude": 36.89319444,
    "longitude": 15.06891667,
    "distance_from_budapest_km": 1223.29,
    "states": "Italy",
    "date_inscribed": "2002"
  },
  {
    "name": "Delos",
    "category": "Cultural",
    "latitude": 37.4,
    "longitude": 25.26667,
    "distance_from_budapest_km": 1232.58,
    "states": "Greece",
    "date_inscribed": "1990"
  },
  {
    "name": "Chaîne des Puys - Limagne fault tectonic arena",
    "category": "Natural",
    "latitude": 45.7793888889,
    "longitude": 2.9651111111,
    "distance_from_budapest_km": 1239.75,
    "states": "France",
    "date_inscribed": "2018"
  },
  {
    "name": "Viking-Age Ring Fortresses",
    "category": "Cultural",
    "latitude": 56.9952777778,
    "longitude": 9.2547222222,
    "distance_from_budapest_km": 1245.92,
    "states": "Denmark",
    "date_inscribed": "2023"
  },
  {
    "name": "Paris, Banks of the Seine",
    "category": "Cultural",
    "latitude": 48.8655,
    "longitude": 2.3211388889,
    "distance_from_budapest_km": 1246.3,
    "states": "France",
    "date_inscribed": "1991"
  },
  {
    "name": "Bourges Cathedral",
    "category": "Cultural",
    "latitude": 47.08222222,
    "longitude": 2.398333333,
    "distance_from_budapest_km": 1253.61,
    "states": "France",
    "date_inscribed": "1992"
  },
  {
    "name": "Amiens Cathedral",
    "category": "Cultural",
    "latitude": 49.895,
    "longitude": 2.301666667,
    "distance_from_budapest_km": 1254.25,
    "states": "France",
    "date_inscribed": "1981"
  },
  {
    "name": "The Causses and the Cévennes, Mediterranean agro-pastoral Cultural Landscape",
    "category": "Cultural",
    "latitude": 44.2202777778,
    "longitude": 3.4730555556,
    "distance_from_budapest_km": 1256.9,
    "states": "France",
    "date_inscribed": "2011"
  },
  {
    "name": "Ephesus",
    "category": "Cultural",
    "latitude": 37.9291666667,
    "longitude": 27.3594444444,
    "distance_from_budapest_km": 1260.9,
    "states": "Türkiye",
    "date_inscribed": "2015"
  },
  {
    "name": "Palace and Park of Versailles",
    "category": "Cultural",
    "latitude": 48.805,
    "longitude": 2.119444444,
    "distance_from_budapest_km": 1261.01,
    "states": "France",
    "date_inscribed": "1979"
  },
  {
    "name": "Pythagoreion and Heraion of Samos",
    "category": "Cultural",
    "latitude": 37.69083,
    "longitude": 26.94333,
    "distance_from_budapest_km": 1266.4,
    "states": "Greece",
    "date_inscribed": "1992"
  },
  {
    "name": "City of Safranbolu",
    "category": "Cultural",
    "latitude": 41.26,
    "longitude": 32.68972,
    "distance_from_budapest_km": 1284.77,
    "states": "Türkiye",
    "date_inscribed": "1994"
  },
  {
    "name": "The Historic Centre (Chorá) with the Monastery of Saint-John the Theologian and the Cave of the Apocalypse on the Island of Pátmos",
    "category": "Cultural",
    "latitude": 37.3,
    "longitude": 26.55,
    "distance_from_budapest_km": 1289.32,
    "states": "Greece",
    "date_inscribed": "1999"
  },
  {
    "name": "Churches of the Pskov School of Architecture",
    "category": "Cultural",
    "latitude": 57.8071944444,
    "longitude": 28.3285555556,
    "distance_from_budapest_km": 1303.69,
    "states": "Russian Federation",
    "date_inscribed": "2019"
  },
  {
    "name": "Chartres Cathedral",
    "category": "Cultural",
    "latitude": 48.4475,
    "longitude": 1.487222222,
    "distance_from_budapest_km": 1308.07,
    "states": "France",
    "date_inscribed": "1979"
  },
  {
    "name": "Skogskyrkogården",
    "category": "Cultural",
    "latitude": 59.27556,
    "longitude": 18.09944,
    "distance_from_budapest_km": 1311.07,
    "states": "Sweden",
    "date_inscribed": "1994"
  },
  {
    "name": "Royal Domain of Drottningholm",
    "category": "Cultural",
    "latitude": 59.32306,
    "longitude": 17.88333,
    "distance_from_budapest_km": 1317.08,
    "states": "Sweden",
    "date_inscribed": "1991"
  },
  {
    "name": "Birka and Hovgården",
    "category": "Cultural",
    "latitude": 59.33514,
    "longitude": 17.54264,
    "distance_from_budapest_km": 1319.89,
    "states": "Sweden",
    "date_inscribed": "1993"
  },
  {
    "name": "Megalithic Temples of Malta",
    "category": "Cultural",
    "latitude": 36.04908,
    "longitude": 14.26947,
    "distance_from_budapest_km": 1332.43,
    "states": "Malta",
    "date_inscribed": "1980"
  },
  {
    "name": "Punic Town of Kerkuane and its Necropolis",
    "category": "Cultural",
    "latitude": 36.94639,
    "longitude": 11.09917,
    "distance_from_budapest_km": 1341.51,
    "states": "Tunisia",
    "date_inscribed": "1985"
  },
  {
    "name": "City of Valletta",
    "category": "Cultural",
    "latitude": 35.90056,
    "longitude": 14.51444,
    "distance_from_budapest_km": 1342.57,
    "states": "Malta",
    "date_inscribed": "1980"
  },
  {
    "name": "Hierapolis-Pamukkale",
    "category": "Mixed",
    "latitude": 37.92389,
    "longitude": 29.12333,
    "distance_from_budapest_km": 1343.73,
    "states": "Türkiye",
    "date_inscribed": "1988"
  },
  {
    "name": "Aphrodisias",
    "category": "Cultural",
    "latitude": 37.7083333333,
    "longitude": 28.7236111111,
    "distance_from_budapest_km": 1344.24,
    "states": "Türkiye",
    "date_inscribed": "2017"
  },
  {
    "name": "Wooden Hypostyle Mosques of Medieval Anatolia",
    "category": "Cultural",
    "latitude": 38.7550361111,
    "longitude": 30.529575,
    "distance_from_budapest_km": 1344.25,
    "states": "Türkiye",
    "date_inscribed": "2023"
  },
  {
    "name": "Rock Carvings in Tanum",
    "category": "Cultural",
    "latitude": 58.70111,
    "longitude": 11.34111,
    "distance_from_budapest_km": 1345.55,
    "states": "Sweden",
    "date_inscribed": "1994"
  },
  {
    "name": "Ħal Saflieni Hypogeum",
    "category": "Cultural",
    "latitude": 35.8695900049,
    "longitude": 14.5068833733,
    "distance_from_budapest_km": 1346.07,
    "states": "Malta",
    "date_inscribed": "1980"
  },
  {
    "name": "Gordion",
    "category": "Cultural",
    "latitude": 39.6433333333,
    "longitude": 31.9861111111,
    "distance_from_budapest_km": 1357.22,
    "states": "Türkiye",
    "date_inscribed": "2023"
  },
  {
    "name": "Canterbury Cathedral, St Augustine's Abbey, and St Martin's Church",
    "category": "Cultural",
    "latitude": 51.28,
    "longitude": 1.083333333,
    "distance_from_budapest_km": 1361.98,
    "states": "United Kingdom of Great Britain and Northern Ireland",
    "date_inscribed": "1988"
  },
  {
    "name": "Episcopal City of Albi",
    "category": "Cultural",
    "latitude": 43.9291666667,
    "longitude": 2.1441666667,
    "distance_from_budapest_km": 1367.35,
    "states": "France",
    "date_inscribed": "2010"
  },
  {
    "name": "Struve Geodetic Arc",
    "category": "Cultural",
    "latitude": 59.0577777778,
    "longitude": 26.3377777777,
    "distance_from_budapest_km": 1371.99,
    "states": "Belarus,Estonia,Finland,Latvia,Lithuania,Norway,Republic of Moldova,Russian Federation,Sweden,Ukraine",
    "date_inscribed": "2005"
  },
  {
    "name": "The Loire Valley between Sully-sur-Loire and Chalonnes",
    "category": "Cultural",
    "latitude": 47.39889,
    "longitude": 0.70278,
    "distance_from_budapest_km": 1375.74,
    "states": "France",
    "date_inscribed": "2000"
  },
  {
    "name": "Abbey Church of Saint-Savin sur Gartempe",
    "category": "Cultural",
    "latitude": 46.56472,
    "longitude": 0.86611,
    "distance_from_budapest_km": 1378.16,
    "states": "France",
    "date_inscribed": "1983"
  },
  {
    "name": "Historic Centre (Old Town) of Tallinn",
    "category": "Cultural",
    "latitude": 59.437,
    "longitude": 24.74,
    "distance_from_budapest_km": 1378.9,
    "states": "Estonia",
    "date_inscribed": "1997"
  },
  {
    "name": "Ichkeul National Park",
    "category": "Natural",
    "latitude": 37.16361,
    "longitude": 9.67472,
    "distance_from_budapest_km": 1380.93,
    "states": "Tunisia",
    "date_inscribed": "1980"
  },
  {
    "name": "Archaeological Site of Carthage",
    "category": "Cultural",
    "latitude": 36.85278,
    "longitude": 10.32333,
    "distance_from_budapest_km": 1382.57,
    "states": "Tunisia",
    "date_inscribed": "1979"
  },
  {
    "name": "Historic Fortified City of Carcassonne",
    "category": "Cultural",
    "latitude": 43.2070631,
    "longitude": 2.3636562,
    "distance_from_budapest_km": 1384.37,
    "states": "France",
    "date_inscribed": "1997"
  },
  {
    "name": "Medina of Tunis",
    "category": "Cultural",
    "latitude": 36.81667,
    "longitude": 10.16667,
    "distance_from_budapest_km": 1392.76,
    "states": "Tunisia",
    "date_inscribed": "1979"
  },
  {
    "name": "Prehistoric Sites and Decorated Caves of the Vézère Valley",
    "category": "Cultural",
    "latitude": 45.0575,
    "longitude": 1.17,
    "distance_from_budapest_km": 1396.65,
    "states": "France",
    "date_inscribed": "1979"
  },
  {
    "name": "Engelsberg Ironworks",
    "category": "Cultural",
    "latitude": 59.97,
    "longitude": 16.01,
    "distance_from_budapest_km": 1400.71,
    "states": "Sweden",
    "date_inscribed": "1993"
  },
  {
    "name": "Le Havre, the City Rebuilt by Auguste Perret",
    "category": "Cultural",
    "latitude": 49.49278,
    "longitude": 0.1075,
    "distance_from_budapest_km": 1408.75,
    "states": "France",
    "date_inscribed": "2005"
  },
  {
    "name": "Routes of Santiago de Compostela in France",
    "category": "Cultural",
    "latitude": 45.18405556,
    "longitude": 0.722944444,
    "distance_from_budapest_km": 1425.97,
    "states": "France",
    "date_inscribed": "1998"
  },
  {
    "name": "Canal du Midi",
    "category": "Cultural",
    "latitude": 43.61138889,
    "longitude": 1.416388889,
    "distance_from_budapest_km": 1434.99,
    "states": "France",
    "date_inscribed": "1996"
  },
  {
    "name": "Maritime Greenwich",
    "category": "Cultural",
    "latitude": 51.4811666667,
    "longitude": -0.0037777778,
    "distance_from_budapest_km": 1440.27,
    "states": "United Kingdom of Great Britain and Northern Ireland",
    "date_inscribed": "1997"
  },
  {
    "name": "Medieval City of Rhodes",
    "category": "Cultural",
    "latitude": 36.44722,
    "longitude": 28.22778,
    "distance_from_budapest_km": 1442.25,
    "states": "Greece",
    "date_inscribed": "1988"
  },
  {
    "name": "Tower of London",
    "category": "Cultural",
    "latitude": 51.50805556,
    "longitude": -0.076111111,
    "distance_from_budapest_km": 1445.73,
    "states": "United Kingdom of Great Britain and Northern Ireland",
    "date_inscribed": "1988"
  },
  {
    "name": "Palace of Westminster and Westminster Abbey including Saint Margaret’s Church",
    "category": "Cultural",
    "latitude": 51.499,
    "longitude": -0.127,
    "distance_from_budapest_km": 1449.01,
    "states": "United Kingdom of Great Britain and Northern Ireland",
    "date_inscribed": "1987"
  },
  {
    "name": "Fortress of Suomenlinna",
    "category": "Cultural",
    "latitude": 60.14722,
    "longitude": 24.98722,
    "distance_from_budapest_km": 1458.26,
    "states": "Finland",
    "date_inscribed": "1991"
  },
  {
    "name": "Royal Botanic Gardens, Kew",
    "category": "Cultural",
    "latitude": 51.48194444,
    "longitude": -0.2940277778,
    "distance_from_budapest_km": 1460.06,
    "states": "United Kingdom of Great Britain and Northern Ireland",
    "date_inscribed": "2003"
  },
  {
    "name": "Talayotic Menorca",
    "category": "Cultural",
    "latitude": 39.9975,
    "longitude": 3.9088888889,
    "distance_from_budapest_km": 1469.98,
    "states": "Spain",
    "date_inscribed": "2023"
  },
  {
    "name": "Historic Monuments of Novgorod and Surroundings",
    "category": "Cultural",
    "latitude": 58.53333,
    "longitude": 31.28333,
    "distance_from_budapest_km": 1470.31,
    "states": "Russian Federation",
    "date_inscribed": "1992"
  },
  {
    "name": "Medina of Sousse",
    "category": "Cultural",
    "latitude": 35.82778,
    "longitude": 10.63861,
    "distance_from_budapest_km": 1471.37,
    "states": "Tunisia",
    "date_inscribed": "1988"
  },
  {
    "name": "Dougga / Thugga",
    "category": "Cultural",
    "latitude": 36.42361,
    "longitude": 9.22028,
    "distance_from_budapest_km": 1472.37,
    "states": "Tunisia",
    "date_inscribed": "1997"
  },
  {
    "name": "Mining Area of the Great Copper Mountain in Falun",
    "category": "Cultural",
    "latitude": 60.60472,
    "longitude": 15.63083,
    "distance_from_budapest_km": 1473.81,
    "states": "Sweden",
    "date_inscribed": "2001"
  },
  {
    "name": "Madriu-Perafita-Claror Valley",
    "category": "Cultural",
    "latitude": 42.49472222,
    "longitude": 1.595555556,
    "distance_from_budapest_km": 1476.14,
    "states": "Andorra",
    "date_inscribed": "2004"
  },
  {
    "name": "Palau de la Música Catalana and Hospital de Sant Pau, Barcelona",
    "category": "Cultural",
    "latitude": 41.38778,
    "longitude": 2.175,
    "distance_from_budapest_km": 1497.08,
    "states": "Spain",
    "date_inscribed": "1997"
  },
  {
    "name": "Works of Antoni Gaudí",
    "category": "Cultural",
    "latitude": 41.41338,
    "longitude": 2.152972,
    "distance_from_budapest_km": 1497.1,
    "states": "Spain",
    "date_inscribed": "1984"
  },
  {
    "name": "Hattusha: the Hittite Capital",
    "category": "Cultural",
    "latitude": 40.01389,
    "longitude": 34.62056,
    "distance_from_budapest_km": 1498.47,
    "states": "Türkiye",
    "date_inscribed": "1986"
  },
  {
    "name": "Jurisdiction of Saint-Emilion",
    "category": "Cultural",
    "latitude": 44.89472222,
    "longitude": -0.1552777778,
    "distance_from_budapest_km": 1501.45,
    "states": "France",
    "date_inscribed": "1999"
  },
  {
    "name": "Xanthos-Letoon",
    "category": "Cultural",
    "latitude": 36.335,
    "longitude": 29.32028,
    "distance_from_budapest_km": 1501.84,
    "states": "Türkiye",
    "date_inscribed": "1988"
  },
  {
    "name": "Kairouan",
    "category": "Cultural",
    "latitude": 35.68167,
    "longitude": 10.10389,
    "distance_from_budapest_km": 1507.17,
    "states": "Tunisia",
    "date_inscribed": "1988"
  },
  {
    "name": "Amphitheatre of El Jem",
    "category": "Cultural",
    "latitude": 35.29639,
    "longitude": 10.70694,
    "distance_from_budapest_km": 1522.32,
    "states": "Tunisia",
    "date_inscribed": "1979"
  },
  {
    "name": "Old Rauma",
    "category": "Cultural",
    "latitude": 61.12806,
    "longitude": 21.51167,
    "distance_from_budapest_km": 1523.79,
    "states": "Finland",
    "date_inscribed": "1991"
  },
  {
    "name": "Bronze Age Burial Site of Sammallahdenmäki",
    "category": "Cultural",
    "latitude": 61.12056,
    "longitude": 21.7775,
    "distance_from_budapest_km": 1524.81,
    "states": "Finland",
    "date_inscribed": "1999"
  },
  {
    "name": "Mont-Saint-Michel and its Bay",
    "category": "Cultural",
    "latitude": 48.63556,
    "longitude": -1.51056,
    "distance_from_budapest_km": 1527.65,
    "states": "France",
    "date_inscribed": "1979"
  },
  {
    "name": "Catalan Romanesque Churches of the Vall de Boí",
    "category": "Cultural",
    "latitude": 42.50472222,
    "longitude": 0.803611111,
    "distance_from_budapest_km": 1533.06,
    "states": "Spain",
    "date_inscribed": "2000"
  },
  {
    "name": "Bordeaux, Port of the Moon",
    "category": "Cultural",
    "latitude": 44.8388888889,
    "longitude": -0.5722222222,
    "distance_from_budapest_km": 1534.61,
    "states": "France",
    "date_inscribed": "2007"
  },
  {
    "name": "Rjukan-Notodden Industrial Heritage Site",
    "category": "Cultural",
    "latitude": 59.8786111111,
    "longitude": 8.5936111111,
    "distance_from_budapest_km": 1534.75,
    "states": "Norway",
    "date_inscribed": "2015"
  },
  {
    "name": "Blenheim Palace",
    "category": "Cultural",
    "latitude": 51.84194444,
    "longitude": -1.361388889,
    "distance_from_budapest_km": 1539.58,
    "states": "United Kingdom of Great Britain and Northern Ireland",
    "date_inscribed": "1987"
  },
  {
    "name": "Cordouan Lighthouse",
    "category": "Cultural",
    "latitude": 45.5863055556,
    "longitude": -1.1733333333,
    "distance_from_budapest_km": 1556.01,
    "states": "France",
    "date_inscribed": "2021"
  },
  {
    "name": "Stonehenge, Avebury and Associated Sites",
    "category": "Cultural",
    "latitude": 51.17888889,
    "longitude": -1.825277778,
    "distance_from_budapest_km": 1560.27,
    "states": "United Kingdom of Great Britain and Northern Ireland",
    "date_inscribed": "1986"
  },
  {
    "name": "Ensemble of the Novodevichy Convent",
    "category": "Cultural",
    "latitude": 55.72611111,
    "longitude": 37.55508333,
    "distance_from_budapest_km": 1564.16,
    "states": "Russian Federation",
    "date_inscribed": "2004"
  },
  {
    "name": "Historic Centre of Saint Petersburg and Related Groups of Monuments",
    "category": "Cultural",
    "latitude": 59.95,
    "longitude": 30.31833,
    "distance_from_budapest_km": 1565.98,
    "states": "Russian Federation",
    "date_inscribed": "1990"
  },
  {
    "name": "Neolithic Site of Çatalhöyük",
    "category": "Cultural",
    "latitude": 37.6666666667,
    "longitude": 32.8280555556,
    "distance_from_budapest_km": 1567.0,
    "states": "Türkiye",
    "date_inscribed": "2012"
  },
  {
    "name": "Church of the Ascension, Kolomenskoye",
    "category": "Cultural",
    "latitude": 55.65556,
    "longitude": 37.67389,
    "distance_from_budapest_km": 1567.09,
    "states": "Russian Federation",
    "date_inscribed": "1994"
  },
  {
    "name": "Cultural Landscape of the Serra de Tramuntana",
    "category": "Cultural",
    "latitude": 39.7308333333,
    "longitude": 2.6947222222,
    "distance_from_budapest_km": 1569.07,
    "states": "Spain",
    "date_inscribed": "2011"
  },
  {
    "name": "Kremlin and Red Square, Moscow",
    "category": "Cultural",
    "latitude": 55.7540277778,
    "longitude": 37.6204166667,
    "distance_from_budapest_km": 1569.22,
    "states": "Russian Federation",
    "date_inscribed": "1990"
  },
  {
    "name": "Poblet Monastery",
    "category": "Cultural",
    "latitude": 41.38083,
    "longitude": 1.0825,
    "distance_from_budapest_km": 1574.67,
    "states": "Spain",
    "date_inscribed": "1991"
  },
  {
    "name": "Derwent Valley Mills",
    "category": "Cultural",
    "latitude": 53.02888889,
    "longitude": -1.488055556,
    "distance_from_budapest_km": 1576.45,
    "states": "United Kingdom of Great Britain and Northern Ireland",
    "date_inscribed": "2001"
  },
  {
    "name": "Archaeological Ensemble of Tarraco",
    "category": "Cultural",
    "latitude": 41.11472222,
    "longitude": 1.259305556,
    "distance_from_budapest_km": 1577.91,
    "states": "Spain",
    "date_inscribed": "2000"
  },
  {
    "name": "Pyrénées - Mont Perdu",
    "category": "Mixed",
    "latitude": 42.68542,
    "longitude": -0.0005,
    "distance_from_budapest_km": 1582.68,
    "states": "France,Spain",
    "date_inscribed": "1997"
  },
  {
    "name": "Verla Groundwood and Board Mill",
    "category": "Cultural",
    "latitude": 61.06194,
    "longitude": 26.64083,
    "distance_from_budapest_km": 1584.39,
    "states": "Finland",
    "date_inscribed": "1996"
  },
  {
    "name": "Decorated Farmhouses of Hälsingland",
    "category": "Cultural",
    "latitude": 61.7072222222,
    "longitude": 16.1958333333,
    "distance_from_budapest_km": 1590.21,
    "states": "Sweden",
    "date_inscribed": "2012"
  },
  {
    "name": "City of Bath",
    "category": "Cultural",
    "latitude": 51.3813055556,
    "longitude": -2.3590555556,
    "distance_from_budapest_km": 1599.91,
    "states": "United Kingdom of Great Britain and Northern Ireland",
    "date_inscribed": "1987"
  },
  {
    "name": "Göreme National Park and the Rock Sites of Cappadocia",
    "category": "Mixed",
    "latitude": 38.66667,
    "longitude": 34.85,
    "distance_from_budapest_km": 1611.26,
    "states": "Türkiye",
    "date_inscribed": "1985"
  },
  {
    "name": "Studley Royal Park including the Ruins of Fountains Abbey",
    "category": "Cultural",
    "latitude": 54.11611111,
    "longitude": -1.573055556,
    "distance_from_budapest_km": 1616.51,
    "states": "United Kingdom of Great Britain and Northern Ireland",
    "date_inscribed": "1986"
  },
  {
    "name": "Saltaire",
    "category": "Cultural",
    "latitude": 53.83916667,
    "longitude": -1.788333333,
    "distance_from_budapest_km": 1620.41,
    "states": "United Kingdom of Great Britain and Northern Ireland",
    "date_inscribed": "2001"
  },
  {
    "name": "Architectural Ensemble of the Trinity Sergius Lavra in Sergiev Posad",
    "category": "Cultural",
    "latitude": 56.31035,
    "longitude": 38.1312,
    "distance_from_budapest_km": 1626.62,
    "states": "Russian Federation",
    "date_inscribed": "1993"
  },
  {
    "name": "Ironbridge Gorge",
    "category": "Cultural",
    "latitude": 52.62638889,
    "longitude": -2.472777778,
    "distance_from_budapest_km": 1630.58,
    "states": "United Kingdom of Great Britain and Northern Ireland",
    "date_inscribed": "1986"
  },
  {
    "name": "Jodrell Bank Observatory",
    "category": "Cultural",
    "latitude": 53.2339166667,
    "longitude": -2.3038611111,
    "distance_from_budapest_km": 1634.85,
    "states": "United Kingdom of Great Britain and Northern Ireland",
    "date_inscribed": "2019"
  },
  {
    "name": "Dorset and East Devon Coast",
    "category": "Natural",
    "latitude": 50.70555556,
    "longitude": -2.989888889,
    "distance_from_budapest_km": 1636.44,
    "states": "United Kingdom of Great Britain and Northern Ireland",
    "date_inscribed": "2001"
  },
  {
    "name": "Durham Castle and Cathedral",
    "category": "Cultural",
    "latitude": 54.77472222,
    "longitude": -1.576111111,
    "distance_from_budapest_km": 1641.53,
    "states": "United Kingdom of Great Britain and Northern Ireland",
    "date_inscribed": "1986"
  },
  {
    "name": "Archaeological Site of Cyrene",
    "category": "Cultural",
    "latitude": 32.825,
    "longitude": 21.85833,
    "distance_from_budapest_km": 1648.73,
    "states": "Libya",
    "date_inscribed": "1982"
  },
  {
    "name": "Djémila",
    "category": "Cultural",
    "latitude": 36.32056,
    "longitude": 5.73667,
    "distance_from_budapest_km": 1655.62,
    "states": "Algeria",
    "date_inscribed": "1982"
  },
  {
    "name": "Blaenavon Industrial Landscape",
    "category": "Cultural",
    "latitude": 51.77638889,
    "longitude": -3.088055556,
    "distance_from_budapest_km": 1655.65,
    "states": "United Kingdom of Great Britain and Northern Ireland",
    "date_inscribed": "2000"
  },
  {
    "name": "Djerba: Testimony to a settlement pattern in an island territory",
    "category": "Cultural",
    "latitude": 33.7924194444,
    "longitude": 11.0039583333,
    "distance_from_budapest_km": 1665.78,
    "states": "Tunisia",
    "date_inscribed": "2023"
  },
  {
    "name": "Western Caucasus",
    "category": "Natural",
    "latitude": 44.0,
    "longitude": 40.0,
    "distance_from_budapest_km": 1666.61,
    "states": "Russian Federation",
    "date_inscribed": "1999"
  },
  {
    "name": "Pontcysyllte Aqueduct and Canal",
    "category": "Cultural",
    "latitude": 52.9702777778,
    "longitude": -3.0877777778,
    "distance_from_budapest_km": 1679.02,
    "states": "United Kingdom of Great Britain and Northern Ireland",
    "date_inscribed": "2009"
  },
  {
    "name": "Bryggen",
    "category": "Cultural",
    "latitude": 60.39722,
    "longitude": 5.32306,
    "distance_from_budapest_km": 1684.6,
    "states": "Norway",
    "date_inscribed": "1979"
  },
  {
    "name": "Petäjävesi Old Church",
    "category": "Cultural",
    "latitude": 62.25,
    "longitude": 25.18333,
    "distance_from_budapest_km": 1684.96,
    "states": "Finland",
    "date_inscribed": "1994"
  },
  {
    "name": "Timgad",
    "category": "Cultural",
    "latitude": 35.4841666667,
    "longitude": 6.4688611111,
    "distance_from_budapest_km": 1692.78,
    "states": "Algeria",
    "date_inscribed": "1982"
  },
  {
    "name": "Archaeological Site of Leptis Magna",
    "category": "Cultural",
    "latitude": 32.63833,
    "longitude": 14.29306,
    "distance_from_budapest_km": 1700.12,
    "states": "Libya",
    "date_inscribed": "1982"
  },
  {
    "name": "Urnes Stave Church",
    "category": "Cultural",
    "latitude": 61.2982594908,
    "longitude": 7.322678289,
    "distance_from_budapest_km": 1705.77,
    "states": "Norway",
    "date_inscribed": "1979"
  },
  {
    "name": "Ibiza, Biodiversity and Culture",
    "category": "Mixed",
    "latitude": 38.91113889,
    "longitude": 1.435194444,
    "distance_from_budapest_km": 1710.64,
    "states": "Spain",
    "date_inscribed": "1999"
  },
  {
    "name": "Frontiers of the Roman Empire",
    "category": "Cultural",
    "latitude": 54.9926111111,
    "longitude": -2.601,
    "distance_from_budapest_km": 1711.42,
    "states": "Germany,United Kingdom of Great Britain and Northern Ireland",
    "date_inscribed": "1987"
  },
  {
    "name": "The English Lake District",
    "category": "Cultural",
    "latitude": 54.4766111111,
    "longitude": -3.0824166667,
    "distance_from_budapest_km": 1722.07,
    "states": "United Kingdom of Great Britain and Northern Ireland",
    "date_inscribed": "2017"
  },
  {
    "name": "Archaeological Site of Sabratha",
    "category": "Cultural",
    "latitude": 32.80528,
    "longitude": 12.485,
    "distance_from_budapest_km": 1724.54,
    "states": "Libya",
    "date_inscribed": "1982"
  },
  {
    "name": "Røros Mining Town and the Circumference",
    "category": "Cultural",
    "latitude": 62.5738888889,
    "longitude": 11.3855555556,
    "distance_from_budapest_km": 1743.01,
    "states": "Norway",
    "date_inscribed": "1980"
  },
  {
    "name": "White Monuments of Vladimir and Suzdal",
    "category": "Cultural",
    "latitude": 56.15,
    "longitude": 40.41666667,
    "distance_from_budapest_km": 1744.85,
    "states": "Russian Federation",
    "date_inscribed": "1992"
  },
  {
    "name": "The Slate Landscape of Northwest Wales",
    "category": "Cultural",
    "latitude": 53.1208333333,
    "longitude": -4.115,
    "distance_from_budapest_km": 1749.66,
    "states": "United Kingdom of Great Britain and Northern Ireland",
    "date_inscribed": "2021"
  },
  {
    "name": "Al Qal'a of Beni Hammad",
    "category": "Cultural",
    "latitude": 35.81844,
    "longitude": 4.78684,
    "distance_from_budapest_km": 1751.89,
    "states": "Algeria",
    "date_inscribed": "1980"
  },
  {
    "name": "Castles and Town Walls of King Edward in Gwynedd",
    "category": "Cultural",
    "latitude": 53.13972222,
    "longitude": -4.276944444,
    "distance_from_budapest_km": 1760.67,
    "states": "United Kingdom of Great Britain and Northern Ireland",
    "date_inscribed": "1986"
  },